{"type": "FeatureCollection", "features": [{"type": "Feature", "geometry": {"type": "Point", "coordinates": [127.1024667, 37.4246833]}, "properties": {"type": "bus", "region": "pangyo", "name": "고등119안전센터"}}, {"type": "Feature", "geometry": {"type": "Point", "coordinates": [127.1059167, 37.4225833]}, "properties": {"type": "bus", "region": "pangyo", "name": "성남농협영농종합지원센터"}}, {"type": "Feature", "geometry": {"type": "Point", "coordinates": [127.1157833, 37.4223667]}, "properties": {"type": "bus", "region": "pangyo", "name": "여수대교"}}, {"type": "Feature", "geometry": {"type": "Point", "coordinates": [127.1158, 37.4218333]}, "properties": {"type": "bus", "region": "pangyo", "name": "여수대교"}}, {"type": "Feature", "geometry": {"type": "Point", "coordinates": [127.1050333, 37.4221333]}, "properties": {"type": "bus", "region": "pangyo", "name": "성남농협영농종합지원센터"}}, {"type": "Feature", "geometry": {"type": "Point", "coordinates": [127.1020333, 37.4246]}, "properties": {"type": "bus", "region": "pangyo", "name": "고등119안전센터"}}, {"type": "Feature", "geometry": {"type": "Point", "coordinates": [127.1012333, 37.4224667]}, "properties": {"type": "bus", "region": "pangyo", "name": "동산마을입구"}}, {"type": "Feature", "geometry": {"type": "Point", "coordinates": [127.1014, 37.4228]}, "properties": {"type": "bus", "region": "pangyo", "name": "동산마을입구"}}, {"type": "Feature", "geometry": {"type": "Point", "coordinates": [127.09935, 37.4116833]}, "properties": {"type": "bus", "region": "pangyo", "name": "판교제2테크노밸리"}}, {"type": "Feature", "geometry": {"type": "Point", "coordinates": [127.1019167, 37.4207667]}, "properties": {"type": "bus", "region": "pangyo", "name": "시흥사거리"}}, {"type": "Feature", "geometry": {"type": "Point", "coordinates": [127.1023167, 37.4211167]}, "properties": {"type": "bus", "region": "pangyo", "name": "시흥사거리"}}, {"type": "Feature", "geometry": {"type": "Point", "coordinates": [127.0997333, 37.4113333]}, "properties": {"type": "bus", "region": "pangyo", "name": "판교제2테크노밸리"}}, {"type": "Feature", "geometry": {"type": "Point", "coordinates": [127.11495, 37.4155833]}, "properties": {"type": "bus", "region": "pangyo", "name": "사송동종점"}}, {"type": "Feature", "geometry": {"type": "Point", "coordinates": [127.1150167, 37.4154333]}, "properties": {"type": "bus", "region": "pangyo", "name": "사송동종점"}}, {"type": "Feature", "geometry": {"type": "Point", "coordinates": [127.09395, 37.4082833]}, "properties": {"type": "bus", "region": "pangyo", "name": "밸리마을"}}, {"type": "Feature", "geometry": {"type": "Point", "coordinates": [127.12885, 37.3941667]}, "properties": {"type": "bus", "region": "pangyo", "name": "이매역3번출구"}}, {"type": "Feature", "geometry": {"type": "Point", "coordinates": [127.1317833, 37.3927167]}, "properties": {"type": "bus", "region": "pangyo", "name": "송림중고.돌마고교"}}, {"type": "Feature", "geometry": {"type": "Point", "coordinates": [127.1317, 37.3925667]}, "properties": {"type": "bus", "region": "pangyo", "name": "송림중고.돌마고교"}}, {"type": "Feature", "geometry": {"type": "Point", "coordinates": [127.13305, 37.3916667]}, "properties": {"type": "bus", "region": "pangyo", "name": "포스파크.띠아모"}}, {"type": "Feature", "geometry": {"type": "Point", "coordinates": [127.1329167, 37.3915667]}, "properties": {"type": "bus", "region": "pangyo", "name": "포스파크.띠아모"}}, {"type": "Feature", "geometry": {"type": "Point", "coordinates": [127.13405, 37.3912167]}, "properties": {"type": "bus", "region": "pangyo", "name": "갈보리교회"}}, {"type": "Feature", "geometry": {"type": "Point", "coordinates": [127.134, 37.3911333]}, "properties": {"type": "bus", "region": "pangyo", "name": "갈보리교회"}}, {"type": "Feature", "geometry": {"type": "Point", "coordinates": [127.1243667, 37.3882]}, "properties": {"type": "bus", "region": "pangyo", "name": "이매촌한신.서현역.AK프라자"}}, {"type": "Feature", "geometry": {"type": "Point", "coordinates": [127.1092333, 37.3853167]}, "properties": {"type": "bus", "region": "pangyo", "name": "백현마을9단지"}}, {"type": "Feature", "geometry": {"type": "Point", "coordinates": [127.1110333, 37.3853167]}, "properties": {"type": "bus", "region": "pangyo", "name": "신백현중학교.단독택지"}}, {"type": "Feature", "geometry": {"type": "Point", "coordinates": [127.0945333, 37.3823]}, "properties": {"type": "bus", "region": "pangyo", "name": "더샵판교퍼스트파크정문"}}, {"type": "Feature", "geometry": {"type": "Point", "coordinates": [127.1042667, 37.39995]}, "properties": {"type": "bus", "region": "pangyo", "name": "네오위즈.NHN"}}, {"type": "Feature", "geometry": {"type": "Point", "coordinates": [127.1348167, 37.4165]}, "properties": {"type": "bus", "region": "pangyo", "name": "매화마을1단지"}}, {"type": "Feature", "geometry": {"type": "Point", "coordinates": [127.1344833, 37.4167833]}, "properties": {"type": "bus", "region": "pangyo", "name": "연꽃마을4단지"}}, {"type": "Feature", "geometry": {"type": "Point", "coordinates": [127.10985, 37.3995833]}, "properties": {"type": "bus", "region": "pangyo", "name": "엔씨소프트.안랩"}}, {"type": "Feature", "geometry": {"type": "Point", "coordinates": [127.1094667, 37.3994667]}, "properties": {"type": "bus", "region": "pangyo", "name": "엔씨소프트.안랩"}}, {"type": "Feature", "geometry": {"type": "Point", "coordinates": [127.1005167, 37.40295]}, "properties": {"type": "bus", "region": "pangyo", "name": "이노밸리A동.오콘"}}, {"type": "Feature", "geometry": {"type": "Point", "coordinates": [127.1007833, 37.4025833]}, "properties": {"type": "bus", "region": "pangyo", "name": "판교PDCC.NS홈쇼핑"}}, {"type": "Feature", "geometry": {"type": "Point", "coordinates": [127.12385, 37.3835333]}, "properties": {"type": "bus", "region": "pangyo", "name": "서현역(공항버스)"}}, {"type": "Feature", "geometry": {"type": "Point", "coordinates": [127.1269167, 37.4124833]}, "properties": {"type": "bus", "region": "pangyo", "name": "성남터미널(임시승차장)"}}, {"type": "Feature", "geometry": {"type": "Point", "coordinates": [127.1261833, 37.4132833]}, "properties": {"type": "bus", "region": "pangyo", "name": "성남터미널(임시하차장)"}}, {"type": "Feature", "geometry": {"type": "Point", "coordinates": [127.1245833, 37.38965]}, "properties": {"type": "bus", "region": "pangyo", "name": "금강.한신아파트"}}, {"type": "Feature", "geometry": {"type": "Point", "coordinates": [127.12525, 37.3940167]}, "properties": {"type": "bus", "region": "pangyo", "name": "이매촌안말초교.성지아파트"}}, {"type": "Feature", "geometry": {"type": "Point", "coordinates": [127.1257167, 37.3910667]}, "properties": {"type": "bus", "region": "pangyo", "name": "동부코오롱아파트"}}, {"type": "Feature", "geometry": {"type": "Point", "coordinates": [127.1098333, 37.39295]}, "properties": {"type": "bus", "region": "pangyo", "name": "낙생지하차도"}}, {"type": "Feature", "geometry": {"type": "Point", "coordinates": [127.1094833, 37.39295]}, "properties": {"type": "bus", "region": "pangyo", "name": "낙생지하차도"}}, {"type": "Feature", "geometry": {"type": "Point", "coordinates": [127.1089333, 37.3878167]}, "properties": {"type": "bus", "region": "pangyo", "name": "판교어린이도서관(마을)"}}, {"type": "Feature", "geometry": {"type": "Point", "coordinates": [127.1285333, 37.4132]}, "properties": {"type": "bus", "region": "pangyo", "name": "야탑역(공항버스)"}}, {"type": "Feature", "geometry": {"type": "Point", "coordinates": [127.1289667, 37.41295]}, "properties": {"type": "bus", "region": "pangyo", "name": "야탑역(공항버스)"}}, {"type": "Feature", "geometry": {"type": "Point", "coordinates": [127.1289667, 37.4127167]}, "properties": {"type": "bus", "region": "pangyo", "name": "야탑역.종합버스터미널(광역버스)"}}, {"type": "Feature", "geometry": {"type": "Point", "coordinates": [127.1144, 37.3960833]}, "properties": {"type": "bus", "region": "pangyo", "name": "봇들마을7.8단지.롯데마트판교점"}}, {"type": "Feature", "geometry": {"type": "Point", "coordinates": [127.1145, 37.3963167]}, "properties": {"type": "bus", "region": "pangyo", "name": "봇들마을7.8단지.롯데마트판교점"}}, {"type": "Feature", "geometry": {"type": "Point", "coordinates": [127.11695, 37.3965833]}, "properties": {"type": "bus", "region": "pangyo", "name": "보평초.중고(마을)"}}, {"type": "Feature", "geometry": {"type": "Point", "coordinates": [127.1091833, 37.38985]}, "properties": {"type": "bus", "region": "pangyo", "name": "백현마을6단지.판교노인종합복지관"}}, {"type": "Feature", "geometry": {"type": "Point", "coordinates": [127.1084667, 37.3892667]}, "properties": {"type": "bus", "region": "pangyo", "name": "백현마을6단지.판교노인종합복지관"}}, {"type": "Feature", "geometry": {"type": "Point", "coordinates": [127.1002667, 37.4014333]}, "properties": {"type": "bus", "region": "pangyo", "name": "판교세븐벤처밸리"}}, {"type": "Feature", "geometry": {"type": "Point", "coordinates": [127.10265, 37.4003667]}, "properties": {"type": "bus", "region": "pangyo", "name": "넥슨네트웍스.NHN.네오위즈"}}, {"type": "Feature", "geometry": {"type": "Point", "coordinates": [127.1026167, 37.4016833]}, "properties": {"type": "bus", "region": "pangyo", "name": "넥슨"}}, {"type": "Feature", "geometry": {"type": "Point", "coordinates": [127.1085167, 37.3882667]}, "properties": {"type": "bus", "region": "pangyo", "name": "판교어린이도서관(마을)"}}, {"type": "Feature", "geometry": {"type": "Point", "coordinates": [127.10185, 37.40435]}, "properties": {"type": "bus", "region": "pangyo", "name": "우주공원.코스맥스"}}, {"type": "Feature", "geometry": {"type": "Point", "coordinates": [127.0998, 37.40475]}, "properties": {"type": "bus", "region": "pangyo", "name": "실리콘파크.삼성중공업"}}, {"type": "Feature", "geometry": {"type": "Point", "coordinates": [127.0940333, 37.4084833]}, "properties": {"type": "bus", "region": "pangyo", "name": "밸리마을"}}, {"type": "Feature", "geometry": {"type": "Point", "coordinates": [127.1087167, 37.4226]}, "properties": {"type": "bus", "region": "pangyo", "name": "시흥동행정복지센터"}}, {"type": "Feature", "geometry": {"type": "Point", "coordinates": [127.1082667, 37.4222667]}, "properties": {"type": "bus", "region": "pangyo", "name": "시흥동행정복지센터"}}, {"type": "Feature", "geometry": {"type": "Point", "coordinates": [127.0873667, 37.40645]}, "properties": {"type": "bus", "region": "pangyo", "name": "텔레칩스"}}, {"type": "Feature", "geometry": {"type": "Point", "coordinates": [127.0882833, 37.4064167]}, "properties": {"type": "bus", "region": "pangyo", "name": "벤처타운(북문)"}}, {"type": "Feature", "geometry": {"type": "Point", "coordinates": [127.0858833, 37.4056333]}, "properties": {"type": "bus", "region": "pangyo", "name": "판교이노베이션랩"}}, {"type": "Feature", "geometry": {"type": "Point", "coordinates": [127.0860833, 37.4056333]}, "properties": {"type": "bus", "region": "pangyo", "name": "벤처타운(서문)"}}, {"type": "Feature", "geometry": {"type": "Point", "coordinates": [127.0892833, 37.4055333]}, "properties": {"type": "bus", "region": "pangyo", "name": "스마트모빌리티실증허브"}}, {"type": "Feature", "geometry": {"type": "Point", "coordinates": [127.0887333, 37.4055333]}, "properties": {"type": "bus", "region": "pangyo", "name": "벤처타운(남문)"}}, {"type": "Feature", "geometry": {"type": "Point", "coordinates": [127.0907667, 37.4070167]}, "properties": {"type": "bus", "region": "pangyo", "name": "위든타워"}}, {"type": "Feature", "geometry": {"type": "Point", "coordinates": [127.09295, 37.4075167]}, "properties": {"type": "bus", "region": "pangyo", "name": "창조밸리교(미정차)"}}, {"type": "Feature", "geometry": {"type": "Point", "coordinates": [127.1171833, 37.4200833]}, "properties": {"type": "bus", "region": "pangyo", "name": "사송동선사교회"}}, {"type": "Feature", "geometry": {"type": "Point", "coordinates": [127.11765, 37.4181667]}, "properties": {"type": "bus", "region": "pangyo", "name": "수자원공사입구"}}, {"type": "Feature", "geometry": {"type": "Point", "coordinates": [127.101, 37.4153833]}, "properties": {"type": "bus", "region": "pangyo", "name": "국가기록원성남분원.코이카"}}, {"type": "Feature", "geometry": {"type": "Point", "coordinates": [127.1014167, 37.41535]}, "properties": {"type": "bus", "region": "pangyo", "name": "국가기록원성남분원.코이카"}}, {"type": "Feature", "geometry": {"type": "Point", "coordinates": [127.1177833, 37.4051833]}, "properties": {"type": "bus", "region": "pangyo", "name": "송현초등학교.판교이지더원2단지"}}, {"type": "Feature", "geometry": {"type": "Point", "coordinates": [127.1177667, 37.4048833]}, "properties": {"type": "bus", "region": "pangyo", "name": "송현초등학교.판교봇들마을4단지"}}, {"type": "Feature", "geometry": {"type": "Point", "coordinates": [127.1154833, 37.4041333]}, "properties": {"type": "bus", "region": "pangyo", "name": "판교신미주아파트.봇들3단지"}}, {"type": "Feature", "geometry": {"type": "Point", "coordinates": [127.1156167, 37.4038833]}, "properties": {"type": "bus", "region": "pangyo", "name": "봇들3단지.판교신미주아파트"}}, {"type": "Feature", "geometry": {"type": "Point", "coordinates": [127.1166667, 37.40205]}, "properties": {"type": "bus", "region": "pangyo", "name": "벌말육교"}}, {"type": "Feature", "geometry": {"type": "Point", "coordinates": [127.117, 37.40215]}, "properties": {"type": "bus", "region": "pangyo", "name": "벌말육교"}}, {"type": "Feature", "geometry": {"type": "Point", "coordinates": [127.1152833, 37.4056167]}, "properties": {"type": "bus", "region": "pangyo", "name": "판교고.송현초.삼평동행정복지센터"}}, {"type": "Feature", "geometry": {"type": "Point", "coordinates": [127.11575, 37.4050167]}, "properties": {"type": "bus", "region": "pangyo", "name": "판교고.송현초.삼평동행정복지센터"}}, {"type": "Feature", "geometry": {"type": "Point", "coordinates": [127.1152667, 37.4075167]}, "properties": {"type": "bus", "region": "pangyo", "name": "판교신미주아파트"}}, {"type": "Feature", "geometry": {"type": "Point", "coordinates": [127.1156167, 37.4069667]}, "properties": {"type": "bus", "region": "pangyo", "name": "이지더원.삼평동행정복지센터"}}, {"type": "Feature", "geometry": {"type": "Point", "coordinates": [127.11515, 37.4151]}, "properties": {"type": "bus", "region": "pangyo", "name": "사송동.종점"}}, {"type": "Feature", "geometry": {"type": "Point", "coordinates": [127.1151, 37.4150167]}, "properties": {"type": "bus", "region": "pangyo", "name": "사송동.종점"}}, {"type": "Feature", "geometry": {"type": "Point", "coordinates": [127.1169, 37.42005]}, "properties": {"type": "bus", "region": "pangyo", "name": "사송동선사교회"}}, {"type": "Feature", "geometry": {"type": "Point", "coordinates": [127.1141667, 37.4111833]}, "properties": {"type": "bus", "region": "pangyo", "name": "사송동자동차검사소"}}, {"type": "Feature", "geometry": {"type": "Point", "coordinates": [127.1144333, 37.4113167]}, "properties": {"type": "bus", "region": "pangyo", "name": "사송동자동차검사소"}}, {"type": "Feature", "geometry": {"type": "Point", "coordinates": [127.11315, 37.4139167]}, "properties": {"type": "bus", "region": "pangyo", "name": "사송동.한국수자원공사"}}, {"type": "Feature", "geometry": {"type": "Point", "coordinates": [127.0899833, 37.4076833]}, "properties": {"type": "bus", "region": "pangyo", "name": "(임시)금토동삼거리"}}, {"type": "Feature", "geometry": {"type": "Point", "coordinates": [127.0898167, 37.4078]}, "properties": {"type": "bus", "region": "pangyo", "name": "(임시)금토동삼거리"}}, {"type": "Feature", "geometry": {"type": "Point", "coordinates": [127.0884833, 37.4094833]}, "properties": {"type": "bus", "region": "pangyo", "name": "금토교회앞"}}, {"type": "Feature", "geometry": {"type": "Point", "coordinates": [127.08825, 37.4094167]}, "properties": {"type": "bus", "region": "pangyo", "name": "금토교회앞"}}, {"type": "Feature", "geometry": {"type": "Point", "coordinates": [127.0869667, 37.4114667]}, "properties": {"type": "bus", "region": "pangyo", "name": "느티나무앞"}}, {"type": "Feature", "geometry": {"type": "Point", "coordinates": [127.0868333, 37.4113167]}, "properties": {"type": "bus", "region": "pangyo", "name": "느티나무앞"}}, {"type": "Feature", "geometry": {"type": "Point", "coordinates": [127.09505, 37.41125]}, "properties": {"type": "bus", "region": "pangyo", "name": "기업성장센터"}}, {"type": "Feature", "geometry": {"type": "Point", "coordinates": [127.0948, 37.4112833]}, "properties": {"type": "bus", "region": "pangyo", "name": "기업성장센터"}}, {"type": "Feature", "geometry": {"type": "Point", "coordinates": [127.0960167, 37.4123833]}, "properties": {"type": "bus", "region": "pangyo", "name": "I_SQUARE.창업주택"}}, {"type": "Feature", "geometry": {"type": "Point", "coordinates": [127.0961667, 37.4121833]}, "properties": {"type": "bus", "region": "pangyo", "name": "I_SQUARE.창업주택"}}, {"type": "Feature", "geometry": {"type": "Point", "coordinates": [127.0956833, 37.4089167]}, "properties": {"type": "bus", "region": "pangyo", "name": "(임시)홍보관"}}, {"type": "Feature", "geometry": {"type": "Point", "coordinates": [127.0955333, 37.4089667]}, "properties": {"type": "bus", "region": "pangyo", "name": "(임시)홍보관"}}, {"type": "Feature", "geometry": {"type": "Point", "coordinates": [127.12905, 37.4193833]}, "properties": {"type": "bus", "region": "pangyo", "name": "성남시청전면"}}, {"type": "Feature", "geometry": {"type": "Point", "coordinates": [127.1285167, 37.4190833]}, "properties": {"type": "bus", "region": "pangyo", "name": "성남시청후면"}}, {"type": "Feature", "geometry": {"type": "Point", "coordinates": [127.1272833, 37.4212667]}, "properties": {"type": "bus", "region": "pangyo", "name": "성남시청후문앞"}}, {"type": "Feature", "geometry": {"type": "Point", "coordinates": [127.1317167, 37.41705]}, "properties": {"type": "bus", "region": "pangyo", "name": "야탑중학교"}}, {"type": "Feature", "geometry": {"type": "Point", "coordinates": [127.1218667, 37.4219333]}, "properties": {"type": "bus", "region": "pangyo", "name": "모란차량기지앞"}}, {"type": "Feature", "geometry": {"type": "Point", "coordinates": [127.1224833, 37.4215833]}, "properties": {"type": "bus", "region": "pangyo", "name": "모란차량기지앞"}}, {"type": "Feature", "geometry": {"type": "Point", "coordinates": [127.1285, 37.4181667]}, "properties": {"type": "bus", "region": "pangyo", "name": "성남시청전면"}}, {"type": "Feature", "geometry": {"type": "Point", "coordinates": [127.1290333, 37.4184]}, "properties": {"type": "bus", "region": "pangyo", "name": "성남시청후면"}}, {"type": "Feature", "geometry": {"type": "Point", "coordinates": [127.1262333, 37.4213667]}, "properties": {"type": "bus", "region": "pangyo", "name": "성남시청후문뒤"}}, {"type": "Feature", "geometry": {"type": "Point", "coordinates": [127.1271833, 37.4216833]}, "properties": {"type": "bus", "region": "pangyo", "name": "성남시청후문"}}, {"type": "Feature", "geometry": {"type": "Point", "coordinates": [127.13105, 37.4186667]}, "properties": {"type": "bus", "region": "pangyo", "name": "센트럴타운3단지"}}, {"type": "Feature", "geometry": {"type": "Point", "coordinates": [127.1338167, 37.4184]}, "properties": {"type": "bus", "region": "pangyo", "name": "연꽃마을4단지"}}, {"type": "Feature", "geometry": {"type": "Point", "coordinates": [127.1340167, 37.4184167]}, "properties": {"type": "bus", "region": "pangyo", "name": "연꽃마을4단지"}}, {"type": "Feature", "geometry": {"type": "Point", "coordinates": [127.13275, 37.4188167]}, "properties": {"type": "bus", "region": "pangyo", "name": "여수초등학교"}}, {"type": "Feature", "geometry": {"type": "Point", "coordinates": [127.13275, 37.4186833]}, "properties": {"type": "bus", "region": "pangyo", "name": "여수초등학교"}}, {"type": "Feature", "geometry": {"type": "Point", "coordinates": [127.13385, 37.4171]}, "properties": {"type": "bus", "region": "pangyo", "name": "여수동입구"}}, {"type": "Feature", "geometry": {"type": "Point", "coordinates": [127.1021, 37.3826333]}, "properties": {"type": "bus", "region": "pangyo", "name": "백현교차로"}}, {"type": "Feature", "geometry": {"type": "Point", "coordinates": [127.0996, 37.3881]}, "properties": {"type": "bus", "region": "pangyo", "name": "너더리육교"}}, {"type": "Feature", "geometry": {"type": "Point", "coordinates": [127.0961333, 37.3882167]}, "properties": {"type": "bus", "region": "pangyo", "name": "한림아파트"}}, {"type": "Feature", "geometry": {"type": "Point", "coordinates": [127.0879333, 37.3898167]}, "properties": {"type": "bus", "region": "pangyo", "name": "판교원마을1.2단지.판교도서관"}}, {"type": "Feature", "geometry": {"type": "Point", "coordinates": [127.0890667, 37.3899]}, "properties": {"type": "bus", "region": "pangyo", "name": "판교원마을1.2단지.판교도서관"}}, {"type": "Feature", "geometry": {"type": "Point", "coordinates": [127.0960833, 37.3885]}, "properties": {"type": "bus", "region": "pangyo", "name": "한림아파트"}}, {"type": "Feature", "geometry": {"type": "Point", "coordinates": [127.0996, 37.3883833]}, "properties": {"type": "bus", "region": "pangyo", "name": "너더리육교"}}, {"type": "Feature", "geometry": {"type": "Point", "coordinates": [127.1025833, 37.3823333]}, "properties": {"type": "bus", "region": "pangyo", "name": "백현교차로"}}, {"type": "Feature", "geometry": {"type": "Point", "coordinates": [127.1242333, 37.3842667]}, "properties": {"type": "bus", "region": "pangyo", "name": "서현역.AK플라자"}}, {"type": "Feature", "geometry": {"type": "Point", "coordinates": [127.1285833, 37.39335]}, "properties": {"type": "bus", "region": "pangyo", "name": "돌마고교"}}, {"type": "Feature", "geometry": {"type": "Point", "coordinates": [127.1284667, 37.3919833]}, "properties": {"type": "bus", "region": "pangyo", "name": "송림고등학교.이매촌청구아파트.동신아파트"}}, {"type": "Feature", "geometry": {"type": "Point", "coordinates": [127.1280167, 37.3930333]}, "properties": {"type": "bus", "region": "pangyo", "name": "송림고교.이매촌성지아파트.청구아파트"}}, {"type": "Feature", "geometry": {"type": "Point", "coordinates": [127.1280833, 37.39675]}, "properties": {"type": "bus", "region": "pangyo", "name": "이매역"}}, {"type": "Feature", "geometry": {"type": "Point", "coordinates": [127.1281333, 37.40165]}, "properties": {"type": "bus", "region": "pangyo", "name": "성남아트센터.태원고교"}}, {"type": "Feature", "geometry": {"type": "Point", "coordinates": [127.13365, 37.40805]}, "properties": {"type": "bus", "region": "pangyo", "name": "탑마을주공8단지.중앙도서관"}}, {"type": "Feature", "geometry": {"type": "Point", "coordinates": [127.1305667, 37.4168]}, "properties": {"type": "bus", "region": "pangyo", "name": "야탑중학교"}}, {"type": "Feature", "geometry": {"type": "Point", "coordinates": [127.1343167, 37.4073333]}, "properties": {"type": "bus", "region": "pangyo", "name": "평생학습원.중앙도서관"}}, {"type": "Feature", "geometry": {"type": "Point", "coordinates": [127.1310667, 37.40595]}, "properties": {"type": "bus", "region": "pangyo", "name": "야탑동경남아너스빌"}}, {"type": "Feature", "geometry": {"type": "Point", "coordinates": [127.1304833, 37.40595]}, "properties": {"type": "bus", "region": "pangyo", "name": "야탑동경남아너스빌"}}, {"type": "Feature", "geometry": {"type": "Point", "coordinates": [127.1331833, 37.4073]}, "properties": {"type": "bus", "region": "pangyo", "name": "평생학습원.중앙도서관"}}, {"type": "Feature", "geometry": {"type": "Point", "coordinates": [127.1255167, 37.4076333]}, "properties": {"type": "bus", "region": "pangyo", "name": "하탑초교.탑마을3차아파트"}}, {"type": "Feature", "geometry": {"type": "Point", "coordinates": [127.12555, 37.4044667]}, "properties": {"type": "bus", "region": "pangyo", "name": "삼환아파트"}}, {"type": "Feature", "geometry": {"type": "Point", "coordinates": [127.12555, 37.4002667]}, "properties": {"type": "bus", "region": "pangyo", "name": "이매촌삼성아파트"}}, {"type": "Feature", "geometry": {"type": "Point", "coordinates": [127.1255333, 37.39815]}, "properties": {"type": "bus", "region": "pangyo", "name": "상공회의소"}}, {"type": "Feature", "geometry": {"type": "Point", "coordinates": [127.1254333, 37.3937333]}, "properties": {"type": "bus", "region": "pangyo", "name": "이매촌안말초교.성지아파트"}}, {"type": "Feature", "geometry": {"type": "Point", "coordinates": [127.1228, 37.3860167]}, "properties": {"type": "bus", "region": "pangyo", "name": "서현역.분당우체국"}}, {"type": "Feature", "geometry": {"type": "Point", "coordinates": [127.1189667, 37.3833167]}, "properties": {"type": "bus", "region": "pangyo", "name": "분당구청후문"}}, {"type": "Feature", "geometry": {"type": "Point", "coordinates": [127.11735, 37.3813167]}, "properties": {"type": "bus", "region": "pangyo", "name": "분당구청입구.수내교"}}, {"type": "Feature", "geometry": {"type": "Point", "coordinates": [127.1169833, 37.3811667]}, "properties": {"type": "bus", "region": "pangyo", "name": "분당구청입구.수내교"}}, {"type": "Feature", "geometry": {"type": "Point", "coordinates": [127.1181667, 37.3830833]}, "properties": {"type": "bus", "region": "pangyo", "name": "분당구청후문"}}, {"type": "Feature", "geometry": {"type": "Point", "coordinates": [127.1224167, 37.3860833]}, "properties": {"type": "bus", "region": "pangyo", "name": "서현역.분당우체국"}}, {"type": "Feature", "geometry": {"type": "Point", "coordinates": [127.1252333, 37.3953]}, "properties": {"type": "bus", "region": "pangyo", "name": "진흥아파트"}}, {"type": "Feature", "geometry": {"type": "Point", "coordinates": [127.1252833, 37.3996]}, "properties": {"type": "bus", "region": "pangyo", "name": "상공회의소"}}, {"type": "Feature", "geometry": {"type": "Point", "coordinates": [127.1252667, 37.40345]}, "properties": {"type": "bus", "region": "pangyo", "name": "이매중학교"}}, {"type": "Feature", "geometry": {"type": "Point", "coordinates": [127.1253167, 37.4059]}, "properties": {"type": "bus", "region": "pangyo", "name": "하탑초교.탑마을진덕아파트"}}, {"type": "Feature", "geometry": {"type": "Point", "coordinates": [127.1289667, 37.4121]}, "properties": {"type": "bus", "region": "pangyo", "name": "야탑역.종합버스터미널(전면)"}}, {"type": "Feature", "geometry": {"type": "Point", "coordinates": [127.0963, 37.3822]}, "properties": {"type": "bus", "region": "pangyo", "name": "더샵판교퍼스트파크"}}, {"type": "Feature", "geometry": {"type": "Point", "coordinates": [127.1340333, 37.4153667]}, "properties": {"type": "bus", "region": "pangyo", "name": "장미마을8단지.매화마을주공1단지"}}, {"type": "Feature", "geometry": {"type": "Point", "coordinates": [127.1340333, 37.4140167]}, "properties": {"type": "bus", "region": "pangyo", "name": "매화마을사거리.매화마을2단지"}}, {"type": "Feature", "geometry": {"type": "Point", "coordinates": [127.1340167, 37.4111667]}, "properties": {"type": "bus", "region": "pangyo", "name": "탑어린이공원"}}, {"type": "Feature", "geometry": {"type": "Point", "coordinates": [127.13375, 37.4117333]}, "properties": {"type": "bus", "region": "pangyo", "name": "탑어린이공원"}}, {"type": "Feature", "geometry": {"type": "Point", "coordinates": [127.13375, 37.41395]}, "properties": {"type": "bus", "region": "pangyo", "name": "매화마을사거리.장미마을8단지"}}, {"type": "Feature", "geometry": {"type": "Point", "coordinates": [127.1337167, 37.4161667]}, "properties": {"type": "bus", "region": "pangyo", "name": "장미마을8단지.현대아파트"}}, {"type": "Feature", "geometry": {"type": "Point", "coordinates": [127.10045, 37.4015167]}, "properties": {"type": "bus", "region": "pangyo", "name": "판교세븐벤처밸리"}}, {"type": "Feature", "geometry": {"type": "Point", "coordinates": [127.1040833, 37.39975]}, "properties": {"type": "bus", "region": "pangyo", "name": "판교환경생태학습원"}}, {"type": "Feature", "geometry": {"type": "Point", "coordinates": [127.1115, 37.40335]}, "properties": {"type": "bus", "region": "pangyo", "name": "차그룹컨소시엄"}}, {"type": "Feature", "geometry": {"type": "Point", "coordinates": [127.1305333, 37.41395]}, "properties": {"type": "bus", "region": "pangyo", "name": "장미마을"}}, {"type": "Feature", "geometry": {"type": "Point", "coordinates": [127.1323667, 37.4137167]}, "properties": {"type": "bus", "region": "pangyo", "name": "장미마을.현대아파트"}}, {"type": "Feature", "geometry": {"type": "Point", "coordinates": [127.1321333, 37.4135167]}, "properties": {"type": "bus", "region": "pangyo", "name": "장미마을.현대아파트"}}, {"type": "Feature", "geometry": {"type": "Point", "coordinates": [127.1300333, 37.4137]}, "properties": {"type": "bus", "region": "pangyo", "name": "장미마을"}}, {"type": "Feature", "geometry": {"type": "Point", "coordinates": [127.09445, 37.3824833]}, "properties": {"type": "bus", "region": "pangyo", "name": "더샵판교퍼스트파크정문"}}, {"type": "Feature", "geometry": {"type": "Point", "coordinates": [127.13025, 37.4097167]}, "properties": {"type": "bus", "region": "pangyo", "name": "돌마초교.야탑역.야탑1동행정복지센터"}}, {"type": "Feature", "geometry": {"type": "Point", "coordinates": [127.1285, 37.4114167]}, "properties": {"type": "bus", "region": "pangyo", "name": "야탑역.종합버스터미널(전면)"}}, {"type": "Feature", "geometry": {"type": "Point", "coordinates": [127.1289667, 37.4117]}, "properties": {"type": "bus", "region": "pangyo", "name": "야탑역.종합버스터미널(후면)"}}, {"type": "Feature", "geometry": {"type": "Point", "coordinates": [127.13005, 37.4099667]}, "properties": {"type": "bus", "region": "pangyo", "name": "돌마초교.야탑역.야탑1동행정복지센터"}}, {"type": "Feature", "geometry": {"type": "Point", "coordinates": [127.1348333, 37.4096667]}, "properties": {"type": "bus", "region": "pangyo", "name": "탑마을주공8단지"}}, {"type": "Feature", "geometry": {"type": "Point", "coordinates": [127.1216333, 37.3946]}, "properties": {"type": "bus", "region": "pangyo", "name": "성남역"}}, {"type": "Feature", "geometry": {"type": "Point", "coordinates": [127.1020333, 37.3876]}, "properties": {"type": "bus", "region": "pangyo", "name": "낙생고등학교"}}, {"type": "Feature", "geometry": {"type": "Point", "coordinates": [127.1340167, 37.40885]}, "properties": {"type": "bus", "region": "pangyo", "name": "탑마을주공8단지.중앙도서관"}}, {"type": "Feature", "geometry": {"type": "Point", "coordinates": [127.1287167, 37.4014667]}, "properties": {"type": "bus", "region": "pangyo", "name": "성남아트센터.태원고교"}}, {"type": "Feature", "geometry": {"type": "Point", "coordinates": [127.1287667, 37.3976]}, "properties": {"type": "bus", "region": "pangyo", "name": "이매역.진흥아파트.동신아파트"}}, {"type": "Feature", "geometry": {"type": "Point", "coordinates": [127.10985, 37.3953833]}, "properties": {"type": "bus", "region": "pangyo", "name": "판교역서편"}}, {"type": "Feature", "geometry": {"type": "Point", "coordinates": [127.1341167, 37.3809333]}, "properties": {"type": "bus", "region": "pangyo", "name": "서현중학교"}}, {"type": "Feature", "geometry": {"type": "Point", "coordinates": [127.1287667, 37.3843333]}, "properties": {"type": "bus", "region": "pangyo", "name": "양현보도육교"}}, {"type": "Feature", "geometry": {"type": "Point", "coordinates": [127.1242333, 37.3883167]}, "properties": {"type": "bus", "region": "pangyo", "name": "이매촌한신.서현역.AK프라자"}}, {"type": "Feature", "geometry": {"type": "Point", "coordinates": [127.1234167, 37.3913333]}, "properties": {"type": "bus", "region": "pangyo", "name": "이매촌금강아파트.코오롱아파트.동부아파트"}}, {"type": "Feature", "geometry": {"type": "Point", "coordinates": [127.124, 37.3841167]}, "properties": {"type": "bus", "region": "pangyo", "name": "서현역(공항버스)"}}, {"type": "Feature", "geometry": {"type": "Point", "coordinates": [127.1267667, 37.4097167]}, "properties": {"type": "bus", "region": "pangyo", "name": "야탑2동행정복지센터.차병원"}}, {"type": "Feature", "geometry": {"type": "Point", "coordinates": [127.1267167, 37.4099667]}, "properties": {"type": "bus", "region": "pangyo", "name": "야탑2동행정복지센터.차병원"}}, {"type": "Feature", "geometry": {"type": "Point", "coordinates": [127.1235833, 37.4077833]}, "properties": {"type": "bus", "region": "pangyo", "name": "탑마을대우아파트.선경아파트"}}, {"type": "Feature", "geometry": {"type": "Point", "coordinates": [127.1232833, 37.4078667]}, "properties": {"type": "bus", "region": "pangyo", "name": "탑마을대우아파트.선경아파트"}}, {"type": "Feature", "geometry": {"type": "Point", "coordinates": [127.1268167, 37.4052833]}, "properties": {"type": "bus", "region": "pangyo", "name": "삼환아파트"}}, {"type": "Feature", "geometry": {"type": "Point", "coordinates": [127.1206167, 37.3816833]}, "properties": {"type": "bus", "region": "pangyo", "name": "분당구청.중앙공원후문"}}, {"type": "Feature", "geometry": {"type": "Point", "coordinates": [127.12735, 37.4055333]}, "properties": {"type": "bus", "region": "pangyo", "name": "삼환진덕아파트"}}, {"type": "Feature", "geometry": {"type": "Point", "coordinates": [127.1245333, 37.3839833]}, "properties": {"type": "bus", "region": "pangyo", "name": "서현역.AK플라자"}}, {"type": "Feature", "geometry": {"type": "Point", "coordinates": [127.1207667, 37.3813167]}, "properties": {"type": "bus", "region": "pangyo", "name": "분당구청.중앙공원후문"}}, {"type": "Feature", "geometry": {"type": "Point", "coordinates": [127.1234333, 37.3954667]}, "properties": {"type": "bus", "region": "pangyo", "name": "성남역.이매고교.아름마을.효성선경아파트"}}, {"type": "Feature", "geometry": {"type": "Point", "coordinates": [127.1234167, 37.3976333]}, "properties": {"type": "bus", "region": "pangyo", "name": "매송중학교.풍림아파트"}}, {"type": "Feature", "geometry": {"type": "Point", "coordinates": [127.1234833, 37.4018167]}, "properties": {"type": "bus", "region": "pangyo", "name": "매송초교.아름마을"}}, {"type": "Feature", "geometry": {"type": "Point", "coordinates": [127.1234167, 37.40455]}, "properties": {"type": "bus", "region": "pangyo", "name": "아름마을"}}, {"type": "Feature", "geometry": {"type": "Point", "coordinates": [127.1212667, 37.4053333]}, "properties": {"type": "bus", "region": "pangyo", "name": "아름마을건영아파트"}}, {"type": "Feature", "geometry": {"type": "Point", "coordinates": [127.1223667, 37.4055833]}, "properties": {"type": "bus", "region": "pangyo", "name": "탑마을대우아파트"}}, {"type": "Feature", "geometry": {"type": "Point", "coordinates": [127.1237, 37.4045667]}, "properties": {"type": "bus", "region": "pangyo", "name": "아름마을"}}, {"type": "Feature", "geometry": {"type": "Point", "coordinates": [127.12375, 37.4019333]}, "properties": {"type": "bus", "region": "pangyo", "name": "매송초교.아름마을"}}, {"type": "Feature", "geometry": {"type": "Point", "coordinates": [127.1236667, 37.3976167]}, "properties": {"type": "bus", "region": "pangyo", "name": "매송중학교.풍림아파트"}}, {"type": "Feature", "geometry": {"type": "Point", "coordinates": [127.1236333, 37.39535]}, "properties": {"type": "bus", "region": "pangyo", "name": "성남역.이매고교.아름마을.효성선경아파트"}}, {"type": "Feature", "geometry": {"type": "Point", "coordinates": [127.1235333, 37.3911167]}, "properties": {"type": "bus", "region": "pangyo", "name": "이매촌금강아파트.코오롱아파트.동부아파트"}}, {"type": "Feature", "geometry": {"type": "Point", "coordinates": [127.1246333, 37.3884833]}, "properties": {"type": "bus", "region": "pangyo", "name": "이매촌한신.서현역.AK프라자"}}, {"type": "Feature", "geometry": {"type": "Point", "coordinates": [127.1296167, 37.3842667]}, "properties": {"type": "bus", "region": "pangyo", "name": "양현보도육교"}}, {"type": "Feature", "geometry": {"type": "Point", "coordinates": [127.1342833, 37.38125]}, "properties": {"type": "bus", "region": "pangyo", "name": "서현중학교"}}, {"type": "Feature", "geometry": {"type": "Point", "coordinates": [127.1193, 37.4151333]}, "properties": {"type": "bus", "region": "pangyo", "name": "분당야탑물류센터"}}, {"type": "Feature", "geometry": {"type": "Point", "coordinates": [127.1194167, 37.4153]}, "properties": {"type": "bus", "region": "pangyo", "name": "분당야탑물류센터"}}, {"type": "Feature", "geometry": {"type": "Point", "coordinates": [127.12235, 37.4105667]}, "properties": {"type": "bus", "region": "pangyo", "name": "탄천종합운동장"}}, {"type": "Feature", "geometry": {"type": "Point", "coordinates": [127.1222167, 37.4110833]}, "properties": {"type": "bus", "region": "pangyo", "name": "탄천종합운동장"}}, {"type": "Feature", "geometry": {"type": "Point", "coordinates": [127.1285167, 37.4158833]}, "properties": {"type": "bus", "region": "pangyo", "name": "동부.코오롱아파트"}}, {"type": "Feature", "geometry": {"type": "Point", "coordinates": [127.1233667, 37.3805167]}, "properties": {"type": "bus", "region": "pangyo", "name": "서현고등학교"}}, {"type": "Feature", "geometry": {"type": "Point", "coordinates": [127.1236833, 37.3807167]}, "properties": {"type": "bus", "region": "pangyo", "name": "서현고등학교"}}, {"type": "Feature", "geometry": {"type": "Point", "coordinates": [127.1325667, 37.38325]}, "properties": {"type": "bus", "region": "pangyo", "name": "서현도서관"}}, {"type": "Feature", "geometry": {"type": "Point", "coordinates": [127.13285, 37.3831667]}, "properties": {"type": "bus", "region": "pangyo", "name": "서현도서관"}}, {"type": "Feature", "geometry": {"type": "Point", "coordinates": [127.1284333, 37.4068667]}, "properties": {"type": "bus", "region": "pangyo", "name": "쌍용아파트"}}, {"type": "Feature", "geometry": {"type": "Point", "coordinates": [127.1291833, 37.3812667]}, "properties": {"type": "bus", "region": "pangyo", "name": "올림픽스포츠센터"}}, {"type": "Feature", "geometry": {"type": "Point", "coordinates": [127.12605, 37.3819833]}, "properties": {"type": "bus", "region": "pangyo", "name": "서현1동행정복지센터"}}, {"type": "Feature", "geometry": {"type": "Point", "coordinates": [127.12685, 37.3827167]}, "properties": {"type": "bus", "region": "pangyo", "name": "서현문화의집"}}, {"type": "Feature", "geometry": {"type": "Point", "coordinates": [127.1247833, 37.3830333]}, "properties": {"type": "bus", "region": "pangyo", "name": "한양아파트"}}, {"type": "Feature", "geometry": {"type": "Point", "coordinates": [127.1238, 37.3845667]}, "properties": {"type": "bus", "region": "pangyo", "name": "AK플라자2층"}}, {"type": "Feature", "geometry": {"type": "Point", "coordinates": [127.1300333, 37.38415]}, "properties": {"type": "bus", "region": "pangyo", "name": "양현보도육교"}}, {"type": "Feature", "geometry": {"type": "Point", "coordinates": [127.12345, 37.3999167]}, "properties": {"type": "bus", "region": "pangyo", "name": "아름마을.방아다리사거리"}}, {"type": "Feature", "geometry": {"type": "Point", "coordinates": [127.12365, 37.3999333]}, "properties": {"type": "bus", "region": "pangyo", "name": "아름마을.방아다리사거리"}}, {"type": "Feature", "geometry": {"type": "Point", "coordinates": [127.12895, 37.4073333]}, "properties": {"type": "bus", "region": "pangyo", "name": "경남아너스빌"}}, {"type": "Feature", "geometry": {"type": "Point", "coordinates": [127.128, 37.3809]}, "properties": {"type": "bus", "region": "pangyo", "name": "시범상가"}}, {"type": "Feature", "geometry": {"type": "Point", "coordinates": [127.126, 37.3872]}, "properties": {"type": "bus", "region": "pangyo", "name": "이매촌한신.서현역.AK프라자"}}, {"type": "Feature", "geometry": {"type": "Point", "coordinates": [127.1305, 37.3801333]}, "properties": {"type": "bus", "region": "pangyo", "name": "서현1동.우성아파트"}}, {"type": "Feature", "geometry": {"type": "Point", "coordinates": [127.1284833, 37.4120167]}, "properties": {"type": "bus", "region": "pangyo", "name": "야탑역.종합버스터미널(후면)"}}, {"type": "Feature", "geometry": {"type": "Point", "coordinates": [127.1182333, 37.3921167]}, "properties": {"type": "bus", "region": "pangyo", "name": "성남역.백현마을2단지"}}, {"type": "Feature", "geometry": {"type": "Point", "coordinates": [127.1145, 37.3919667]}, "properties": {"type": "bus", "region": "pangyo", "name": "백현마을1단지"}}, {"type": "Feature", "geometry": {"type": "Point", "coordinates": [127.1118833, 37.3918667]}, "properties": {"type": "bus", "region": "pangyo", "name": "판교역.낙생육교.현대백화점"}}, {"type": "Feature", "geometry": {"type": "Point", "coordinates": [127.10475, 37.3934333]}, "properties": {"type": "bus", "region": "pangyo", "name": "지역난방공사"}}, {"type": "Feature", "geometry": {"type": "Point", "coordinates": [127.1117, 37.3914833]}, "properties": {"type": "bus", "region": "pangyo", "name": "판교역.낙생육교.현대백화점"}}, {"type": "Feature", "geometry": {"type": "Point", "coordinates": [127.1156833, 37.3916667]}, "properties": {"type": "bus", "region": "pangyo", "name": "백현마을4단지"}}, {"type": "Feature", "geometry": {"type": "Point", "coordinates": [127.11815, 37.3917833]}, "properties": {"type": "bus", "region": "pangyo", "name": "성남역.백현마을3단지"}}, {"type": "Feature", "geometry": {"type": "Point", "coordinates": [127.1067333, 37.3953333]}, "properties": {"type": "bus", "region": "pangyo", "name": "화랑공원남편"}}, {"type": "Feature", "geometry": {"type": "Point", "coordinates": [127.1060333, 37.4013]}, "properties": {"type": "bus", "region": "pangyo", "name": "금토천교"}}, {"type": "Feature", "geometry": {"type": "Point", "coordinates": [127.1047833, 37.4041333]}, "properties": {"type": "bus", "region": "pangyo", "name": "삼평교"}}, {"type": "Feature", "geometry": {"type": "Point", "coordinates": [127.1041667, 37.4039167]}, "properties": {"type": "bus", "region": "pangyo", "name": "삼평교"}}, {"type": "Feature", "geometry": {"type": "Point", "coordinates": [127.10555, 37.4012]}, "properties": {"type": "bus", "region": "pangyo", "name": "금토천교"}}, {"type": "Feature", "geometry": {"type": "Point", "coordinates": [127.1063167, 37.3954833]}, "properties": {"type": "bus", "region": "pangyo", "name": "화랑공원남편"}}, {"type": "Feature", "geometry": {"type": "Point", "coordinates": [127.0933, 37.399]}, "properties": {"type": "bus", "region": "pangyo", "name": "힐스테이트"}}, {"type": "Feature", "geometry": {"type": "Point", "coordinates": [127.0941, 37.3997167]}, "properties": {"type": "bus", "region": "pangyo", "name": "힐스테이트"}}, {"type": "Feature", "geometry": {"type": "Point", "coordinates": [127.0959167, 37.4006667]}, "properties": {"type": "bus", "region": "pangyo", "name": "성내미육교.판교박물관"}}, {"type": "Feature", "geometry": {"type": "Point", "coordinates": [127.0957833, 37.3985333]}, "properties": {"type": "bus", "region": "pangyo", "name": "판교원마을11단지.낙원중"}}, {"type": "Feature", "geometry": {"type": "Point", "coordinates": [127.0956333, 37.4001333]}, "properties": {"type": "bus", "region": "pangyo", "name": "성내미육교.판교박물관"}}, {"type": "Feature", "geometry": {"type": "Point", "coordinates": [127.0916833, 37.38935]}, "properties": {"type": "bus", "region": "pangyo", "name": "판교유스센터.판교종합사회복지관"}}, {"type": "Feature", "geometry": {"type": "Point", "coordinates": [127.0919333, 37.3889833]}, "properties": {"type": "bus", "region": "pangyo", "name": "판교유스센터.판교종합사회복지관"}}, {"type": "Feature", "geometry": {"type": "Point", "coordinates": [127.1068333, 37.3974167]}, "properties": {"type": "bus", "region": "pangyo", "name": "화랑공원동편"}}, {"type": "Feature", "geometry": {"type": "Point", "coordinates": [127.11095, 37.40335]}, "properties": {"type": "bus", "region": "pangyo", "name": "차그룹컨소시엄"}}, {"type": "Feature", "geometry": {"type": "Point", "coordinates": [127.1109833, 37.4030833]}, "properties": {"type": "bus", "region": "pangyo", "name": "한국무역정보통신"}}, {"type": "Feature", "geometry": {"type": "Point", "coordinates": [127.1076667, 37.4033667]}, "properties": {"type": "bus", "region": "pangyo", "name": "봇들육교"}}, {"type": "Feature", "geometry": {"type": "Point", "coordinates": [127.1076833, 37.4030667]}, "properties": {"type": "bus", "region": "pangyo", "name": "유라코퍼레이션.SK케미칼"}}, {"type": "Feature", "geometry": {"type": "Point", "coordinates": [127.1030667, 37.4033667]}, "properties": {"type": "bus", "region": "pangyo", "name": "이노밸리.포스코DX"}}, {"type": "Feature", "geometry": {"type": "Point", "coordinates": [127.10315, 37.4030167]}, "properties": {"type": "bus", "region": "pangyo", "name": "SK플래닛.판교디지털센터"}}, {"type": "Feature", "geometry": {"type": "Point", "coordinates": [127.1072, 37.3969333]}, "properties": {"type": "bus", "region": "pangyo", "name": "화랑공원동편"}}, {"type": "Feature", "geometry": {"type": "Point", "coordinates": [127.11275, 37.4014]}, "properties": {"type": "bus", "region": "pangyo", "name": "봇들마을5단지"}}, {"type": "Feature", "geometry": {"type": "Point", "coordinates": [127.11315, 37.4014333]}, "properties": {"type": "bus", "region": "pangyo", "name": "봇들마을5단지.테크노육교"}}, {"type": "Feature", "geometry": {"type": "Point", "coordinates": [127.1087167, 37.39995]}, "properties": {"type": "bus", "region": "pangyo", "name": "메디포스트"}}, {"type": "Feature", "geometry": {"type": "Point", "coordinates": [127.1086167, 37.3997333]}, "properties": {"type": "bus", "region": "pangyo", "name": "NC소프트"}}, {"type": "Feature", "geometry": {"type": "Point", "coordinates": [127.1206833, 37.3834]}, "properties": {"type": "bus", "region": "pangyo", "name": "분당구청.서현역"}}, {"type": "Feature", "geometry": {"type": "Point", "coordinates": [127.10185, 37.3870667]}, "properties": {"type": "bus", "region": "pangyo", "name": "낙생고등학교"}}, {"type": "Feature", "geometry": {"type": "Point", "coordinates": [127.0956667, 37.3989167]}, "properties": {"type": "bus", "region": "pangyo", "name": "판교원마을11단지.낙원중"}}, {"type": "Feature", "geometry": {"type": "Point", "coordinates": [127.09755, 37.397]}, "properties": {"type": "bus", "region": "pangyo", "name": "불꽃교회"}}, {"type": "Feature", "geometry": {"type": "Point", "coordinates": [127.0979167, 37.3967333]}, "properties": {"type": "bus", "region": "pangyo", "name": "불꽃교회"}}, {"type": "Feature", "geometry": {"type": "Point", "coordinates": [127.0981167, 37.3936]}, "properties": {"type": "bus", "region": "pangyo", "name": "낙생초등학교"}}, {"type": "Feature", "geometry": {"type": "Point", "coordinates": [127.0984167, 37.3931]}, "properties": {"type": "bus", "region": "pangyo", "name": "낙생초등학교.판교원마을10단지"}}, {"type": "Feature", "geometry": {"type": "Point", "coordinates": [127.0975, 37.3891]}, "properties": {"type": "bus", "region": "pangyo", "name": "판교동행정복지센터"}}, {"type": "Feature", "geometry": {"type": "Point", "coordinates": [127.0977, 37.3892167]}, "properties": {"type": "bus", "region": "pangyo", "name": "판교동행정복지센터"}}, {"type": "Feature", "geometry": {"type": "Point", "coordinates": [127.1199167, 37.3835667]}, "properties": {"type": "bus", "region": "pangyo", "name": "분당구청.서현역"}}, {"type": "Feature", "geometry": {"type": "Point", "coordinates": [127.1243, 37.3887167]}, "properties": {"type": "bus", "region": "pangyo", "name": "이매촌한신.서현역.AK프라자"}}, {"type": "Feature", "geometry": {"type": "Point", "coordinates": [127.1166667, 37.3980833]}, "properties": {"type": "bus", "region": "pangyo", "name": "봇들마을7단지"}}, {"type": "Feature", "geometry": {"type": "Point", "coordinates": [127.11695, 37.398]}, "properties": {"type": "bus", "region": "pangyo", "name": "봇들마을9단지"}}, {"type": "Feature", "geometry": {"type": "Point", "coordinates": [127.11665, 37.39495]}, "properties": {"type": "bus", "region": "pangyo", "name": "성남역.보평중고등학교"}}, {"type": "Feature", "geometry": {"type": "Point", "coordinates": [127.1169667, 37.3946833]}, "properties": {"type": "bus", "region": "pangyo", "name": "성남역.보평중고등학교"}}, {"type": "Feature", "geometry": {"type": "Point", "coordinates": [127.1258333, 37.3868667]}, "properties": {"type": "bus", "region": "pangyo", "name": "이매촌한신.서현역.AK프라자"}}, {"type": "Feature", "geometry": {"type": "Point", "coordinates": [127.11665, 37.3899167]}, "properties": {"type": "bus", "region": "pangyo", "name": "백현마을3.4단지.화랑초등학교"}}, {"type": "Feature", "geometry": {"type": "Point", "coordinates": [127.1169333, 37.3900333]}, "properties": {"type": "bus", "region": "pangyo", "name": "백현마을3.4단지.화랑초등학교"}}, {"type": "Feature", "geometry": {"type": "Point", "coordinates": [127.1147833, 37.3880833]}, "properties": {"type": "bus", "region": "pangyo", "name": "백현마을4단지상가"}}, {"type": "Feature", "geometry": {"type": "Point", "coordinates": [127.1149167, 37.3879167]}, "properties": {"type": "bus", "region": "pangyo", "name": "백현마을4단지상가"}}, {"type": "Feature", "geometry": {"type": "Point", "coordinates": [127.1097167, 37.3880667]}, "properties": {"type": "bus", "region": "pangyo", "name": "백현동행정복지센터"}}, {"type": "Feature", "geometry": {"type": "Point", "coordinates": [127.1102, 37.3878167]}, "properties": {"type": "bus", "region": "pangyo", "name": "백현동행정복지센터"}}, {"type": "Feature", "geometry": {"type": "Point", "coordinates": [127.1085167, 37.3863833]}, "properties": {"type": "bus", "region": "pangyo", "name": "백현마을8단지"}}, {"type": "Feature", "geometry": {"type": "Point", "coordinates": [127.1125, 37.3864833]}, "properties": {"type": "bus", "region": "pangyo", "name": "신백현초등학교"}}, {"type": "Feature", "geometry": {"type": "Point", "coordinates": [127.1132167, 37.38705]}, "properties": {"type": "bus", "region": "pangyo", "name": "신백현초등학교"}}, {"type": "Feature", "geometry": {"type": "Point", "coordinates": [127.1127167, 37.3892167]}, "properties": {"type": "bus", "region": "pangyo", "name": "백현육교"}}, {"type": "Feature", "geometry": {"type": "Point", "coordinates": [127.1132, 37.3894333]}, "properties": {"type": "bus", "region": "pangyo", "name": "백현육교"}}, {"type": "Feature", "geometry": {"type": "Point", "coordinates": [127.1127167, 37.3909667]}, "properties": {"type": "bus", "region": "pangyo", "name": "백현마을5단지"}}, {"type": "Feature", "geometry": {"type": "Point", "coordinates": [127.1132, 37.39075]}, "properties": {"type": "bus", "region": "pangyo", "name": "백현마을4단지"}}, {"type": "Feature", "geometry": {"type": "Point", "coordinates": [127.1131833, 37.3947833]}, "properties": {"type": "bus", "region": "pangyo", "name": "판교역동편"}}, {"type": "Feature", "geometry": {"type": "Point", "coordinates": [127.1131333, 37.3979833]}, "properties": {"type": "bus", "region": "pangyo", "name": "판교호반써밋플레이스"}}, {"type": "Feature", "geometry": {"type": "Point", "coordinates": [127.1127, 37.3953833]}, "properties": {"type": "bus", "region": "pangyo", "name": "판교역동편"}}, {"type": "Feature", "geometry": {"type": "Point", "coordinates": [127.11275, 37.3977]}, "properties": {"type": "bus", "region": "pangyo", "name": "웰츠타워"}}, {"type": "Feature", "geometry": {"type": "Point", "coordinates": [127.1094833, 37.3972167]}, "properties": {"type": "bus", "region": "pangyo", "name": "동안교"}}, {"type": "Feature", "geometry": {"type": "Point", "coordinates": [127.1098667, 37.39725]}, "properties": {"type": "bus", "region": "pangyo", "name": "동안교"}}, {"type": "Feature", "geometry": {"type": "Point", "coordinates": [127.1245333, 37.3845]}, "properties": {"type": "bus", "region": "pangyo", "name": "서현역.서현고가차도"}}, {"type": "Feature", "geometry": {"type": "Point", "coordinates": [127.0915833, 37.3834333]}, "properties": {"type": "bus", "region": "pangyo", "name": "백현동종점"}}, {"type": "Feature", "geometry": {"type": "Point", "coordinates": [127.10985, 37.4017833]}, "properties": {"type": "bus", "region": "pangyo", "name": "H스퀘어.삼환하이펙스"}}, {"type": "Feature", "geometry": {"type": "Point", "coordinates": [127.10945, 37.40185]}, "properties": {"type": "bus", "region": "pangyo", "name": "H스퀘어.삼환하이펙스"}}, {"type": "Feature", "geometry": {"type": "Point", "coordinates": [127.1113833, 37.3961167]}, "properties": {"type": "bus", "region": "pangyo", "name": "판교역북편"}}, {"type": "Feature", "geometry": {"type": "Point", "coordinates": [127.1111667, 37.3963]}, "properties": {"type": "bus", "region": "pangyo", "name": "판교역북편"}}, {"type": "Feature", "geometry": {"type": "Point", "coordinates": [127.1098333, 37.3948167]}, "properties": {"type": "bus", "region": "pangyo", "name": "판교역서편"}}, {"type": "Feature", "geometry": {"type": "Point", "coordinates": [127.1095167, 37.3947167]}, "properties": {"type": "bus", "region": "pangyo", "name": "판교역서편"}}, {"type": "Feature", "geometry": {"type": "Point", "coordinates": [127.1115, 37.39385]}, "properties": {"type": "bus", "region": "pangyo", "name": "판교역남편"}}, {"type": "Feature", "geometry": {"type": "Point", "coordinates": [127.1290667, 37.3942]}, "properties": {"type": "bus", "region": "pangyo", "name": "이매역3번출구"}}, {"type": "Feature", "geometry": {"type": "Point", "coordinates": [127.1289667, 37.4242667]}, "properties": {"type": "bus", "region": "pangyo", "name": "성남대로(미정차)"}}, {"type": "Feature", "geometry": {"type": "Point", "coordinates": [127.1150833, 37.4219]}, "properties": {"type": "bus", "region": "pangyo", "name": "여수대로IC(미정차)"}}, {"type": "Feature", "geometry": {"type": "Point", "coordinates": [127.1285667, 37.40555]}, "properties": {"type": "bus", "region": "pangyo", "name": "하탑사거리(미정차)"}}, {"type": "Feature", "geometry": {"type": "Point", "coordinates": [127.12875, 37.4055333]}, "properties": {"type": "bus", "region": "pangyo", "name": "하탑사거리(미정차)"}}, {"type": "Feature", "geometry": {"type": "Point", "coordinates": [127.1193, 37.4055]}, "properties": {"type": "bus", "region": "pangyo", "name": "벌말사거리(미정차)"}}, {"type": "Feature", "geometry": {"type": "Point", "coordinates": [127.1193, 37.4053833]}, "properties": {"type": "bus", "region": "pangyo", "name": "벌말사거리(미정차)"}}, {"type": "Feature", "geometry": {"type": "Point", "coordinates": [127.1200333, 37.3917667]}, "properties": {"type": "bus", "region": "pangyo", "name": "매송사거리(미정차)"}}, {"type": "Feature", "geometry": {"type": "Point", "coordinates": [127.1204167, 37.3917167]}, "properties": {"type": "bus", "region": "pangyo", "name": "매송사거리(미정차)"}}, {"type": "Feature", "geometry": {"type": "Point", "coordinates": [127.1047833, 37.41205]}, "properties": {"type": "bus", "region": "pangyo", "name": "동판교IC(미정차)"}}, {"type": "Feature", "geometry": {"type": "Point", "coordinates": [127.1127167, 37.3996]}, "properties": {"type": "bus", "region": "pangyo", "name": "삼평사거리(미정차)"}}, {"type": "Feature", "geometry": {"type": "Point", "coordinates": [127.09505, 37.40605]}, "properties": {"type": "bus", "region": "pangyo", "name": "판교JC(미정차)"}}, {"type": "Feature", "geometry": {"type": "Point", "coordinates": [127.0935833, 37.4052167]}, "properties": {"type": "bus", "region": "pangyo", "name": "판교JC(미정차)"}}, {"type": "Feature", "geometry": {"type": "Point", "coordinates": [127.11315, 37.4131]}, "properties": {"type": "bus", "region": "pangyo", "name": "기점출발(미정차)"}}, {"type": "Feature", "geometry": {"type": "Point", "coordinates": [127.1135, 37.4121833]}, "properties": {"type": "bus", "region": "pangyo", "name": "기점출발(미정차)"}}, {"type": "Feature", "geometry": {"type": "Point", "coordinates": [127.1149333, 37.4094333]}, "properties": {"type": "bus", "region": "pangyo", "name": "판교진입전(미정차)"}}, {"type": "Feature", "geometry": {"type": "Point", "coordinates": [127.1021333, 37.3956667]}, "properties": {"type": "bus", "region": "pangyo", "name": "판교TG(미정차)"}}, {"type": "Feature", "geometry": {"type": "Point", "coordinates": [127.1031667, 37.39595]}, "properties": {"type": "bus", "region": "pangyo", "name": "판교TG(미정차)"}}, {"type": "Feature", "geometry": {"type": "Point", "coordinates": [127.10005, 37.3988333]}, "properties": {"type": "bus", "region": "pangyo", "name": "판교IC(미정차)"}}, {"type": "Feature", "geometry": {"type": "Point", "coordinates": [127.1006167, 37.3986333]}, "properties": {"type": "bus", "region": "pangyo", "name": "판교IC(미정차)"}}, {"type": "Feature", "geometry": {"type": "Point", "coordinates": [127.1292, 37.4214]}, "properties": {"type": "bus", "region": "pangyo", "name": "성남시청교차로(미정차)"}}, {"type": "Feature", "geometry": {"type": "Point", "coordinates": [127.104, 37.3933333]}, "properties": {"type": "bus", "region": "pangyo", "name": "낙원지하차도(미정차)"}}, {"type": "Feature", "geometry": {"type": "Point", "coordinates": [127.1188333, 37.40565]}, "properties": {"type": "bus", "region": "pangyo", "name": "야탑(미정차)"}}, {"type": "Feature", "geometry": {"type": "Point", "coordinates": [127.1193167, 37.4057]}, "properties": {"type": "bus", "region": "pangyo", "name": "야탑(미정차)"}}, {"type": "Feature", "geometry": {"type": "Point", "coordinates": [127.0853167, 37.4152833]}, "properties": {"type": "bus", "region": "pangyo", "name": "금토JC(미정차)"}}, {"type": "Feature", "geometry": {"type": "Point", "coordinates": [127.1176, 37.41885]}, "properties": {"type": "bus", "region": "pangyo", "name": "탄천로입구교차로(미정차)"}}, {"type": "Feature", "geometry": {"type": "Point", "coordinates": [127.1155667, 37.4220667]}, "properties": {"type": "bus", "region": "pangyo", "name": "여수대로IC(미정차)"}}, {"type": "Feature", "geometry": {"type": "Point", "coordinates": [127.1155667, 37.4222167]}, "properties": {"type": "bus", "region": "pangyo", "name": "여수대로IC(미정차)"}}, {"type": "Feature", "geometry": {"type": "Point", "coordinates": [127.1050667, 37.4122333]}, "properties": {"type": "bus", "region": "pangyo", "name": "동판교IC(미정차)"}}, {"type": "Feature", "geometry": {"type": "Point", "coordinates": [127.10495, 37.4117167]}, "properties": {"type": "bus", "region": "pangyo", "name": "동판교IC(미정차)"}}, {"type": "Feature", "geometry": {"type": "Point", "coordinates": [127.1268833, 37.3858]}, "properties": {"type": "bus", "region": "pangyo", "name": "이매사거리(미정차)"}}, {"type": "Feature", "geometry": {"type": "Point", "coordinates": [127.0992667, 37.3985167]}, "properties": {"type": "bus", "region": "pangyo", "name": "판교IC(미정차)"}}, {"type": "Feature", "geometry": {"type": "Point", "coordinates": [127.1017333, 37.3938167]}, "properties": {"type": "bus", "region": "pangyo", "name": "판교진입(미정차)"}}, {"type": "Feature", "geometry": {"type": "Point", "coordinates": [127.1019833, 37.3920667]}, "properties": {"type": "bus", "region": "pangyo", "name": "판교출입(미정차)"}}, {"type": "Feature", "geometry": {"type": "Point", "coordinates": [127.11515, 37.4224333]}, "properties": {"type": "bus", "region": "pangyo", "name": "여수대로IC(미정차)"}}, {"type": "Feature", "geometry": {"type": "Point", "coordinates": [127.1088, 37.3922167]}, "properties": {"type": "bus", "region": "pangyo", "name": "낙생지하차도(미정차)"}}, {"type": "Feature", "geometry": {"type": "Point", "coordinates": [127.1225302, 37.4215426]}, "properties": {"type": "bus", "region": "pangyo", "name": "모란차량기지앞"}}, {"type": "Feature", "geometry": {"type": "Point", "coordinates": [127.1025157, 37.4246423]}, "properties": {"type": "bus", "region": "pangyo", "name": "고등119안전센터"}}, {"type": "Feature", "geometry": {"type": "Point", "coordinates": [127.1285474, 37.3933364]}, "properties": {"type": "bus", "region": "pangyo", "name": "돌마고교"}}, {"type": "Feature", "geometry": {"type": "Point", "coordinates": [127.1216459, 37.3945385]}, "properties": {"type": "bus", "region": "pangyo", "name": "성남역"}}, {"type": "Feature", "geometry": {"type": "Point", "coordinates": [127.1014495, 37.4227637]}, "properties": {"type": "bus", "region": "pangyo", "name": "동산마을입구"}}, {"type": "Feature", "geometry": {"type": "Point", "coordinates": [127.1234634, 37.3912961]}, "properties": {"type": "bus", "region": "pangyo", "name": "이매촌금강아파트.코오롱아파트."}}, {"type": "Feature", "geometry": {"type": "Point", "coordinates": [127.1156953, 37.3916049]}, "properties": {"type": "bus", "region": "pangyo", "name": "백현마을4단지"}}, {"type": "Feature", "geometry": {"type": "Point", "coordinates": [127.1288155, 37.3842958]}, "properties": {"type": "bus", "region": "pangyo", "name": "양현보도육교"}}, {"type": "Feature", "geometry": {"type": "Point", "coordinates": [127.114548, 37.3919247]}, "properties": {"type": "bus", "region": "pangyo", "name": "백현마을1단지"}}, {"type": "Feature", "geometry": {"type": "Point", "coordinates": [127.1083178, 37.4222334]}, "properties": {"type": "bus", "region": "pangyo", "name": "시흥동행정복지센터"}}, {"type": "Feature", "geometry": {"type": "Point", "coordinates": [127.1341758, 37.380887]}, "properties": {"type": "bus", "region": "pangyo", "name": "서현중학교"}}, {"type": "Feature", "geometry": {"type": "Point", "coordinates": [127.1282112, 37.4015729]}, "properties": {"type": "bus", "region": "pangyo", "name": "성남아트센터.태원고교"}}, {"type": "Feature", "geometry": {"type": "Point", "coordinates": [127.0961282, 37.3884657]}, "properties": {"type": "bus", "region": "pangyo", "name": "한림아파트"}}, {"type": "Feature", "geometry": {"type": "Point", "coordinates": [127.1072511, 37.396904]}, "properties": {"type": "bus", "region": "pangyo", "name": "화랑공원동편"}}, {"type": "Feature", "geometry": {"type": "Point", "coordinates": [127.1234295, 37.3975722]}, "properties": {"type": "bus", "region": "pangyo", "name": "매송중학교.풍림아파트"}}, {"type": "Feature", "geometry": {"type": "Point", "coordinates": [127.1060779, 37.4012684]}, "properties": {"type": "bus", "region": "pangyo", "name": "금토천교"}}, {"type": "Feature", "geometry": {"type": "Point", "coordinates": [127.1048367, 37.4041028]}, "properties": {"type": "bus", "region": "pangyo", "name": "삼평교"}}, {"type": "Feature", "geometry": {"type": "Point", "coordinates": [127.0948098, 37.4112236]}, "properties": {"type": "bus", "region": "pangyo", "name": "기업성장센터"}}, {"type": "Feature", "geometry": {"type": "Point", "coordinates": [127.0891205, 37.389865]}, "properties": {"type": "bus", "region": "pangyo", "name": "판교원마을1.2단지.판교도서관"}}, {"type": "Feature", "geometry": {"type": "Point", "coordinates": [127.0996426, 37.3880543]}, "properties": {"type": "bus", "region": "pangyo", "name": "너더리육교"}}, {"type": "Feature", "geometry": {"type": "Point", "coordinates": [127.1234461, 37.3954053]}, "properties": {"type": "bus", "region": "pangyo", "name": "성남역.이매고교.아름마을.효성"}}, {"type": "Feature", "geometry": {"type": "Point", "coordinates": [127.0892925, 37.405473]}, "properties": {"type": "bus", "region": "pangyo", "name": "스마트모빌리티실증허브"}}, {"type": "Feature", "geometry": {"type": "Point", "coordinates": [127.12878, 37.3975388]}, "properties": {"type": "bus", "region": "pangyo", "name": "이매역.진흥아파트.동신아파트"}}, {"type": "Feature", "geometry": {"type": "Point", "coordinates": [127.1020768, 37.424569]}, "properties": {"type": "bus", "region": "pangyo", "name": "고등119안전센터"}}, {"type": "Feature", "geometry": {"type": "Point", "coordinates": [127.101045, 37.4153475]}, "properties": {"type": "bus", "region": "pangyo", "name": "국가기록원성남분원.코이카"}}, {"type": "Feature", "geometry": {"type": "Point", "coordinates": [127.1300811, 37.3841115]}, "properties": {"type": "bus", "region": "pangyo", "name": "양현보도육교"}}, {"type": "Feature", "geometry": {"type": "Point", "coordinates": [127.1343281, 37.3812176]}, "properties": {"type": "bus", "region": "pangyo", "name": "서현중학교"}}, {"type": "Feature", "geometry": {"type": "Point", "coordinates": [127.129016, 37.4116621]}, "properties": {"type": "bus", "region": "pangyo", "name": "야탑역.종합버스터미널(후면)"}}, {"type": "Feature", "geometry": {"type": "Point", "coordinates": [127.1245752, 37.3884476]}, "properties": {"type": "bus", "region": "pangyo", "name": "이매촌한신.서현역.AK프라자"}}, {"type": "Feature", "geometry": {"type": "Point", "coordinates": [127.1068745, 37.3973746]}, "properties": {"type": "bus", "region": "pangyo", "name": "화랑공원동편"}}, {"type": "Feature", "geometry": {"type": "Point", "coordinates": [127.0887425, 37.405473]}, "properties": {"type": "bus", "region": "pangyo", "name": "벤처타운(남문)"}}, {"type": "Feature", "geometry": {"type": "Point", "coordinates": [127.1285691, 37.4158463]}, "properties": {"type": "bus", "region": "pangyo", "name": "동부.코오롱아파트"}}, {"type": "Feature", "geometry": {"type": "Point", "coordinates": [127.1042188, 37.4038813]}, "properties": {"type": "bus", "region": "pangyo", "name": "삼평교"}}, {"type": "Feature", "geometry": {"type": "Point", "coordinates": [127.1158537, 37.4218025]}, "properties": {"type": "bus", "region": "pangyo", "name": "여수대교"}}, {"type": "Feature", "geometry": {"type": "Point", "coordinates": [127.0996419, 37.3883476]}, "properties": {"type": "bus", "region": "pangyo", "name": "너더리육교"}}, {"type": "Feature", "geometry": {"type": "Point", "coordinates": [127.0961883, 37.3881731]}, "properties": {"type": "bus", "region": "pangyo", "name": "한림아파트"}}, {"type": "Feature", "geometry": {"type": "Point", "coordinates": [127.1236795, 37.3975555]}, "properties": {"type": "bus", "region": "pangyo", "name": "매송중학교.풍림아파트"}}, {"type": "Feature", "geometry": {"type": "Point", "coordinates": [127.1117466, 37.3914374]}, "properties": {"type": "bus", "region": "pangyo", "name": "판교역.낙생육교.현대백화점"}}, {"type": "Feature", "geometry": {"type": "Point", "coordinates": [127.1055913, 37.4011599]}, "properties": {"type": "bus", "region": "pangyo", "name": "금토천교"}}, {"type": "Feature", "geometry": {"type": "Point", "coordinates": [127.1236461, 37.3952886]}, "properties": {"type": "bus", "region": "pangyo", "name": "성남역.이매고교.아름마을.효성"}}, {"type": "Feature", "geometry": {"type": "Point", "coordinates": [127.1280966, 37.3966887]}, "properties": {"type": "bus", "region": "pangyo", "name": "이매역"}}, {"type": "Feature", "geometry": {"type": "Point", "coordinates": [127.0950598, 37.4111903]}, "properties": {"type": "bus", "region": "pangyo", "name": "기업성장센터"}}, {"type": "Feature", "geometry": {"type": "Point", "coordinates": [127.099777, 37.4112983]}, "properties": {"type": "bus", "region": "pangyo", "name": "판교제2테크노밸리"}}, {"type": "Feature", "geometry": {"type": "Point", "coordinates": [127.115842, 37.4223262]}, "properties": {"type": "bus", "region": "pangyo", "name": "여수대교"}}, {"type": "Feature", "geometry": {"type": "Point", "coordinates": [127.1285109, 37.3919422]}, "properties": {"type": "bus", "region": "pangyo", "name": "송림고등학교.이매촌청구아파트."}}, {"type": "Feature", "geometry": {"type": "Point", "coordinates": [127.1014622, 37.4153066]}, "properties": {"type": "bus", "region": "pangyo", "name": "국가기록원성남분원.코이카"}}, {"type": "Feature", "geometry": {"type": "Point", "coordinates": [127.0858922, 37.405573]}, "properties": {"type": "bus", "region": "pangyo", "name": "판교이노베이션랩"}}, {"type": "Feature", "geometry": {"type": "Point", "coordinates": [127.1253501, 37.3995124]}, "properties": {"type": "bus", "region": "pangyo", "name": "상공회의소"}}, {"type": "Feature", "geometry": {"type": "Point", "coordinates": [127.1286631, 37.4016265]}, "properties": {"type": "bus", "region": "pangyo", "name": "성남아트센터.태원고교"}}, {"type": "Feature", "geometry": {"type": "Point", "coordinates": [127.1019655, 37.4207295]}, "properties": {"type": "bus", "region": "pangyo", "name": "시흥사거리"}}, {"type": "Feature", "geometry": {"type": "Point", "coordinates": [127.1063683, 37.3954378]}, "properties": {"type": "bus", "region": "pangyo", "name": "화랑공원남편"}}, {"type": "Feature", "geometry": {"type": "Point", "coordinates": [127.0873757, 37.4063898]}, "properties": {"type": "bus", "region": "pangyo", "name": "텔레칩스"}}, {"type": "Feature", "geometry": {"type": "Point", "coordinates": [127.0993942, 37.4116529]}, "properties": {"type": "bus", "region": "pangyo", "name": "판교제2테크노밸리"}}, {"type": "Feature", "geometry": {"type": "Point", "coordinates": [127.1290254, 37.4126805]}, "properties": {"type": "bus", "region": "pangyo", "name": "야탑역.종합버스터미널(광역버스"}}, {"type": "Feature", "geometry": {"type": "Point", "coordinates": [127.1243586, 37.3886725]}, "properties": {"type": "bus", "region": "pangyo", "name": "이매촌한신.서현역.AK프라자"}}, {"type": "Feature", "geometry": {"type": "Point", "coordinates": [127.1265981, 37.4096756]}, "properties": {"type": "bus", "region": "pangyo", "name": "야탑2동행정복지센터.차병원"}}, {"type": "Feature", "geometry": {"type": "Point", "coordinates": [127.1056384, 37.4224916]}, "properties": {"type": "bus", "region": "pangyo", "name": "성남농협영농종합지원센터"}}, {"type": "Feature", "geometry": {"type": "Point", "coordinates": [127.1182792, 37.3920771]}, "properties": {"type": "bus", "region": "pangyo", "name": "성남역.백현마을2단지"}}, {"type": "Feature", "geometry": {"type": "Point", "coordinates": [127.1255662, 37.4004133]}, "properties": {"type": "bus", "region": "pangyo", "name": "이매촌삼성아파트"}}, {"type": "Feature", "geometry": {"type": "Point", "coordinates": [127.1273344, 37.4212307]}, "properties": {"type": "bus", "region": "pangyo", "name": "성남시청후문앞"}}, {"type": "Feature", "geometry": {"type": "Point", "coordinates": [127.1290052, 37.4072893]}, "properties": {"type": "bus", "region": "pangyo", "name": "경남아너스빌"}}, {"type": "Feature", "geometry": {"type": "Point", "coordinates": [127.1285461, 37.4113785]}, "properties": {"type": "bus", "region": "pangyo", "name": "야탑역.종합버스터미널(전면)"}}, {"type": "Feature", "geometry": {"type": "Point", "coordinates": [127.1285559, 37.4181313]}, "properties": {"type": "bus", "region": "pangyo", "name": "성남시청전면"}}, {"type": "Feature", "geometry": {"type": "Point", "coordinates": [127.1290794, 37.4183726]}, "properties": {"type": "bus", "region": "pangyo", "name": "성남시청후면"}}, {"type": "Feature", "geometry": {"type": "Point", "coordinates": [127.1087342, 37.4225429]}, "properties": {"type": "bus", "region": "pangyo", "name": "시흥동행정복지센터"}}, {"type": "Feature", "geometry": {"type": "Point", "coordinates": [127.0860922, 37.405573]}, "properties": {"type": "bus", "region": "pangyo", "name": "벤처타운(서문)"}}, {"type": "Feature", "geometry": {"type": "Point", "coordinates": [127.0879802, 37.3897826]}, "properties": {"type": "bus", "region": "pangyo", "name": "판교원마을1.2단지.판교도서관"}}, {"type": "Feature", "geometry": {"type": "Point", "coordinates": [127.1280725, 37.3929675]}, "properties": {"type": "bus", "region": "pangyo", "name": "송림고교.이매촌성지아파트.청구"}}, {"type": "Feature", "geometry": {"type": "Point", "coordinates": [127.0917258, 37.3893101]}, "properties": {"type": "bus", "region": "pangyo", "name": "판교유스센터.판교종합사회복지"}}, {"type": "Feature", "geometry": {"type": "Point", "coordinates": [127.1255617, 37.4045223]}, "properties": {"type": "bus", "region": "pangyo", "name": "삼환아파트"}}, {"type": "Feature", "geometry": {"type": "Point", "coordinates": [127.1272315, 37.4216425]}, "properties": {"type": "bus", "region": "pangyo", "name": "성남시청후문"}}, {"type": "Feature", "geometry": {"type": "Point", "coordinates": [127.1253035, 37.393975]}, "properties": {"type": "bus", "region": "pangyo", "name": "이매촌안말초교.성지아파트"}}, {"type": "Feature", "geometry": {"type": "Point", "coordinates": [127.1284928, 37.4068221]}, "properties": {"type": "bus", "region": "pangyo", "name": "쌍용아파트"}}, {"type": "Feature", "geometry": {"type": "Point", "coordinates": [127.1244104, 37.38816]}, "properties": {"type": "bus", "region": "pangyo", "name": "이매촌한신.서현역.AK프라자"}}, {"type": "Feature", "geometry": {"type": "Point", "coordinates": [127.1050165, 37.4221588]}, "properties": {"type": "bus", "region": "pangyo", "name": "성남농협영농종합지원센터"}}, {"type": "Feature", "geometry": {"type": "Point", "coordinates": [127.1255633, 37.4075972]}, "properties": {"type": "bus", "region": "pangyo", "name": "하탑초교.탑마을3차아파트"}}, {"type": "Feature", "geometry": {"type": "Point", "coordinates": [127.1296738, 37.3842309]}, "properties": {"type": "bus", "region": "pangyo", "name": "양현보도육교"}}, {"type": "Feature", "geometry": {"type": "Point", "coordinates": [127.1182008, 37.3917376]}, "properties": {"type": "bus", "region": "pangyo", "name": "성남역.백현마을3단지"}}, {"type": "Feature", "geometry": {"type": "Point", "coordinates": [127.1253338, 37.4033511]}, "properties": {"type": "bus", "region": "pangyo", "name": "이매중학교"}}, {"type": "Feature", "geometry": {"type": "Point", "coordinates": [127.1012824, 37.4224315]}, "properties": {"type": "bus", "region": "pangyo", "name": "동산마을입구"}}, {"type": "Feature", "geometry": {"type": "Point", "coordinates": [127.1174076, 37.3812771]}, "properties": {"type": "bus", "region": "pangyo", "name": "분당구청입구.수내교"}}, {"type": "Feature", "geometry": {"type": "Point", "coordinates": [127.1253708, 37.4058629]}, "properties": {"type": "bus", "region": "pangyo", "name": "하탑초교.탑마을진덕아파트"}}, {"type": "Feature", "geometry": {"type": "Point", "coordinates": [127.1219203, 37.4218985]}, "properties": {"type": "bus", "region": "pangyo", "name": "모란차량기지앞"}}, {"type": "Feature", "geometry": {"type": "Point", "coordinates": [127.1267742, 37.4099341]}, "properties": {"type": "bus", "region": "pangyo", "name": "야탑2동행정복지센터.차병원"}}, {"type": "Feature", "geometry": {"type": "Point", "coordinates": [127.117035, 37.3811234]}, "properties": {"type": "bus", "region": "pangyo", "name": "분당구청입구.수내교"}}, {"type": "Feature", "geometry": {"type": "Point", "coordinates": [127.091976, 37.3889522]}, "properties": {"type": "bus", "region": "pangyo", "name": "판교유스센터.판교종합사회복지"}}, {"type": "Feature", "geometry": {"type": "Point", "coordinates": [127.0882924, 37.4063564]}, "properties": {"type": "bus", "region": "pangyo", "name": "벤처타운(북문)"}}, {"type": "Feature", "geometry": {"type": "Point", "coordinates": [127.1067885, 37.3952891]}, "properties": {"type": "bus", "region": "pangyo", "name": "화랑공원남편"}}, {"type": "Feature", "geometry": {"type": "Point", "coordinates": [127.1047934, 37.3934022]}, "properties": {"type": "bus", "region": "pangyo", "name": "지역난방공사"}}, {"type": "Feature", "geometry": {"type": "Point", "coordinates": [127.129102, 37.419353]}, "properties": {"type": "bus", "region": "pangyo", "name": "성남시청전면"}}, {"type": "Feature", "geometry": {"type": "Point", "coordinates": [127.1119317, 37.3918266]}, "properties": {"type": "bus", "region": "pangyo", "name": "판교역.낙생육교.현대백화점"}}, {"type": "Feature", "geometry": {"type": "Point", "coordinates": [126.6829333, 37.5196]}, "properties": {"type": "bus", "region": "cheongna", "name": "한신빌리지(C)"}}, {"type": "Feature", "geometry": {"type": "Point", "coordinates": [126.6768667, 37.5220333]}, "properties": {"type": "bus", "region": "cheongna", "name": "인천국민안전체험관"}}, {"type": "Feature", "geometry": {"type": "Point", "coordinates": [126.677, 37.52145]}, "properties": {"type": "bus", "region": "cheongna", "name": "인천국민안전체험관"}}, {"type": "Feature", "geometry": {"type": "Point", "coordinates": [126.6852667, 37.5212667]}, "properties": {"type": "bus", "region": "cheongna", "name": "한신빌리지(B)"}}, {"type": "Feature", "geometry": {"type": "Point", "coordinates": [126.67595, 37.5278]}, "properties": {"type": "bus", "region": "cheongna", "name": "현광아파트"}}, {"type": "Feature", "geometry": {"type": "Point", "coordinates": [126.6762333, 37.5286167]}, "properties": {"type": "bus", "region": "cheongna", "name": "현광아파트"}}, {"type": "Feature", "geometry": {"type": "Point", "coordinates": [126.6764833, 37.5409667]}, "properties": {"type": "bus", "region": "cheongna", "name": "서인천농협"}}, {"type": "Feature", "geometry": {"type": "Point", "coordinates": [126.6769, 37.5415333]}, "properties": {"type": "bus", "region": "cheongna", "name": "서인천농협"}}, {"type": "Feature", "geometry": {"type": "Point", "coordinates": [126.6795833, 37.5419]}, "properties": {"type": "bus", "region": "cheongna", "name": "인재개발원"}}, {"type": "Feature", "geometry": {"type": "Point", "coordinates": [126.6794167, 37.54205]}, "properties": {"type": "bus", "region": "cheongna", "name": "인재개발원"}}, {"type": "Feature", "geometry": {"type": "Point", "coordinates": [126.6765833, 37.5432]}, "properties": {"type": "bus", "region": "cheongna", "name": "서구청역(3번출구)"}}, {"type": "Feature", "geometry": {"type": "Point", "coordinates": [126.6816833, 37.5433]}, "properties": {"type": "bus", "region": "cheongna", "name": "심곡초등학교(국제성모병원)"}}, {"type": "Feature", "geometry": {"type": "Point", "coordinates": [126.6771, 37.54495]}, "properties": {"type": "bus", "region": "cheongna", "name": "서구청역(1번출구)"}}, {"type": "Feature", "geometry": {"type": "Point", "coordinates": [126.6819, 37.54335]}, "properties": {"type": "bus", "region": "cheongna", "name": "심곡초등학교(국제성모병원)"}}, {"type": "Feature", "geometry": {"type": "Point", "coordinates": [126.6485333, 37.5534333]}, "properties": {"type": "bus", "region": "cheongna", "name": "주물단지"}}, {"type": "Feature", "geometry": {"type": "Point", "coordinates": [126.6469167, 37.5537333]}, "properties": {"type": "bus", "region": "cheongna", "name": "도림주철관공업(주)"}}, {"type": "Feature", "geometry": {"type": "Point", "coordinates": [126.6767333, 37.5455333]}, "properties": {"type": "bus", "region": "cheongna", "name": "서구청역(4번출구)"}}, {"type": "Feature", "geometry": {"type": "Point", "coordinates": [126.6414333, 37.5561833]}, "properties": {"type": "bus", "region": "cheongna", "name": "LG전자(주)"}}, {"type": "Feature", "geometry": {"type": "Point", "coordinates": [126.64175, 37.5564667]}, "properties": {"type": "bus", "region": "cheongna", "name": "서부공단입구"}}, {"type": "Feature", "geometry": {"type": "Point", "coordinates": [126.6558333, 37.55245]}, "properties": {"type": "bus", "region": "cheongna", "name": "서부공단입구"}}, {"type": "Feature", "geometry": {"type": "Point", "coordinates": [126.6564667, 37.5527667]}, "properties": {"type": "bus", "region": "cheongna", "name": "경서지구입구"}}, {"type": "Feature", "geometry": {"type": "Point", "coordinates": [126.6817667, 37.5452]}, "properties": {"type": "bus", "region": "cheongna", "name": "대동아파트"}}, {"type": "Feature", "geometry": {"type": "Point", "coordinates": [126.6819667, 37.5454333]}, "properties": {"type": "bus", "region": "cheongna", "name": "대동아파트"}}, {"type": "Feature", "geometry": {"type": "Point", "coordinates": [126.6772167, 37.5490167]}, "properties": {"type": "bus", "region": "cheongna", "name": "연희동행정복지센터"}}, {"type": "Feature", "geometry": {"type": "Point", "coordinates": [126.6768333, 37.5490833]}, "properties": {"type": "bus", "region": "cheongna", "name": "연희동행정복지센터"}}, {"type": "Feature", "geometry": {"type": "Point", "coordinates": [126.6820833, 37.5480333]}, "properties": {"type": "bus", "region": "cheongna", "name": "연희동광명아파트(사계절썰매장)"}}, {"type": "Feature", "geometry": {"type": "Point", "coordinates": [126.6518833, 37.55785]}, "properties": {"type": "bus", "region": "cheongna", "name": "태평아파트2차(A)"}}, {"type": "Feature", "geometry": {"type": "Point", "coordinates": [126.652, 37.55775]}, "properties": {"type": "bus", "region": "cheongna", "name": "태평아파트2차(B)"}}, {"type": "Feature", "geometry": {"type": "Point", "coordinates": [126.6769333, 37.5514167]}, "properties": {"type": "bus", "region": "cheongna", "name": "아시아드경기장(공촌사거리)역"}}, {"type": "Feature", "geometry": {"type": "Point", "coordinates": [126.6772833, 37.5512333]}, "properties": {"type": "bus", "region": "cheongna", "name": "아시아드경기장(공촌사거리)역"}}, {"type": "Feature", "geometry": {"type": "Point", "coordinates": [126.6749167, 37.5520833]}, "properties": {"type": "bus", "region": "cheongna", "name": "공촌사거리(한국아파트)"}}, {"type": "Feature", "geometry": {"type": "Point", "coordinates": [126.6819833, 37.5500667]}, "properties": {"type": "bus", "region": "cheongna", "name": "공촌마을"}}, {"type": "Feature", "geometry": {"type": "Point", "coordinates": [126.6748333, 37.5524333]}, "properties": {"type": "bus", "region": "cheongna", "name": "공촌사거리"}}, {"type": "Feature", "geometry": {"type": "Point", "coordinates": [126.6526167, 37.55895]}, "properties": {"type": "bus", "region": "cheongna", "name": "태평아파트1차(B)"}}, {"type": "Feature", "geometry": {"type": "Point", "coordinates": [126.6526, 37.55915]}, "properties": {"type": "bus", "region": "cheongna", "name": "태평아파트1차(A)"}}, {"type": "Feature", "geometry": {"type": "Point", "coordinates": [126.6731833, 37.5530833]}, "properties": {"type": "bus", "region": "cheongna", "name": "빈정내사거리"}}, {"type": "Feature", "geometry": {"type": "Point", "coordinates": [126.6729667, 37.5531167]}, "properties": {"type": "bus", "region": "cheongna", "name": "빈정내사거리"}}, {"type": "Feature", "geometry": {"type": "Point", "coordinates": [126.6781667, 37.5519667]}, "properties": {"type": "bus", "region": "cheongna", "name": "공촌사거리"}}, {"type": "Feature", "geometry": {"type": "Point", "coordinates": [126.6780833, 37.5523333]}, "properties": {"type": "bus", "region": "cheongna", "name": "공촌사거리"}}, {"type": "Feature", "geometry": {"type": "Point", "coordinates": [126.68365, 37.5518667]}, "properties": {"type": "bus", "region": "cheongna", "name": "경남아파트"}}, {"type": "Feature", "geometry": {"type": "Point", "coordinates": [126.6636167, 37.55795]}, "properties": {"type": "bus", "region": "cheongna", "name": "경서농원"}}, {"type": "Feature", "geometry": {"type": "Point", "coordinates": [126.6838, 37.5522]}, "properties": {"type": "bus", "region": "cheongna", "name": "경남아파트"}}, {"type": "Feature", "geometry": {"type": "Point", "coordinates": [126.6648167, 37.5582]}, "properties": {"type": "bus", "region": "cheongna", "name": "경서농원"}}, {"type": "Feature", "geometry": {"type": "Point", "coordinates": [126.6888667, 37.5517333]}, "properties": {"type": "bus", "region": "cheongna", "name": "인천서부교육지원청"}}, {"type": "Feature", "geometry": {"type": "Point", "coordinates": [126.6887167, 37.5520667]}, "properties": {"type": "bus", "region": "cheongna", "name": "인천서부교육지원청"}}, {"type": "Feature", "geometry": {"type": "Point", "coordinates": [126.6729833, 37.5573]}, "properties": {"type": "bus", "region": "cheongna", "name": "서곶지구대"}}, {"type": "Feature", "geometry": {"type": "Point", "coordinates": [126.6732, 37.5573333]}, "properties": {"type": "bus", "region": "cheongna", "name": "서곶지구대"}}, {"type": "Feature", "geometry": {"type": "Point", "coordinates": [126.6775667, 37.5570167]}, "properties": {"type": "bus", "region": "cheongna", "name": "대인고등학교"}}, {"type": "Feature", "geometry": {"type": "Point", "coordinates": [126.6772333, 37.5578333]}, "properties": {"type": "bus", "region": "cheongna", "name": "대인고등학교"}}, {"type": "Feature", "geometry": {"type": "Point", "coordinates": [126.6732333, 37.5597667]}, "properties": {"type": "bus", "region": "cheongna", "name": "서인천고등학교"}}, {"type": "Feature", "geometry": {"type": "Point", "coordinates": [126.6730667, 37.56065]}, "properties": {"type": "bus", "region": "cheongna", "name": "간재울초등학교"}}, {"type": "Feature", "geometry": {"type": "Point", "coordinates": [126.6773167, 37.5603]}, "properties": {"type": "bus", "region": "cheongna", "name": "검바위역"}}, {"type": "Feature", "geometry": {"type": "Point", "coordinates": [126.6777, 37.5603]}, "properties": {"type": "bus", "region": "cheongna", "name": "검바위역"}}, {"type": "Feature", "geometry": {"type": "Point", "coordinates": [126.6732833, 37.5620667]}, "properties": {"type": "bus", "region": "cheongna", "name": "삼보아파트"}}, {"type": "Feature", "geometry": {"type": "Point", "coordinates": [126.6731167, 37.5622167]}, "properties": {"type": "bus", "region": "cheongna", "name": "삼보아파트"}}, {"type": "Feature", "geometry": {"type": "Point", "coordinates": [126.67335, 37.56365]}, "properties": {"type": "bus", "region": "cheongna", "name": "검암경서동행정복지센터"}}, {"type": "Feature", "geometry": {"type": "Point", "coordinates": [126.67315, 37.564]}, "properties": {"type": "bus", "region": "cheongna", "name": "검암경서동행정복지센터"}}, {"type": "Feature", "geometry": {"type": "Point", "coordinates": [126.6742167, 37.5652167]}, "properties": {"type": "bus", "region": "cheongna", "name": "서해아파트"}}, {"type": "Feature", "geometry": {"type": "Point", "coordinates": [126.67405, 37.5653333]}, "properties": {"type": "bus", "region": "cheongna", "name": "서해아파트"}}, {"type": "Feature", "geometry": {"type": "Point", "coordinates": [126.6778333, 37.5647167]}, "properties": {"type": "bus", "region": "cheongna", "name": "검암사거리"}}, {"type": "Feature", "geometry": {"type": "Point", "coordinates": [126.67745, 37.5650333]}, "properties": {"type": "bus", "region": "cheongna", "name": "검암사거리"}}, {"type": "Feature", "geometry": {"type": "Point", "coordinates": [126.67685, 37.5656667]}, "properties": {"type": "bus", "region": "cheongna", "name": "검암사거리"}}, {"type": "Feature", "geometry": {"type": "Point", "coordinates": [126.6796333, 37.5663333]}, "properties": {"type": "bus", "region": "cheongna", "name": "검암중학교"}}, {"type": "Feature", "geometry": {"type": "Point", "coordinates": [126.6763167, 37.5676333]}, "properties": {"type": "bus", "region": "cheongna", "name": "검암역.서해그랑블아파트"}}, {"type": "Feature", "geometry": {"type": "Point", "coordinates": [126.6767833, 37.5676]}, "properties": {"type": "bus", "region": "cheongna", "name": "검암초등학교"}}, {"type": "Feature", "geometry": {"type": "Point", "coordinates": [126.6809333, 37.5663]}, "properties": {"type": "bus", "region": "cheongna", "name": "검암중학교"}}, {"type": "Feature", "geometry": {"type": "Point", "coordinates": [126.6824833, 37.5665667]}, "properties": {"type": "bus", "region": "cheongna", "name": "은지초등학교사거리"}}, {"type": "Feature", "geometry": {"type": "Point", "coordinates": [126.68335, 37.5669333]}, "properties": {"type": "bus", "region": "cheongna", "name": "풍림3차아파트"}}, {"type": "Feature", "geometry": {"type": "Point", "coordinates": [126.6870833, 37.5226]}, "properties": {"type": "bus", "region": "cheongna", "name": "청천농장"}}, {"type": "Feature", "geometry": {"type": "Point", "coordinates": [126.6521833, 37.5558833]}, "properties": {"type": "bus", "region": "cheongna", "name": "경서초등학교"}}, {"type": "Feature", "geometry": {"type": "Point", "coordinates": [126.6517667, 37.5561]}, "properties": {"type": "bus", "region": "cheongna", "name": "경서초등학교"}}, {"type": "Feature", "geometry": {"type": "Point", "coordinates": [126.6724, 37.5569333]}, "properties": {"type": "bus", "region": "cheongna", "name": "빈정공원"}}, {"type": "Feature", "geometry": {"type": "Point", "coordinates": [126.6821833, 37.5504167]}, "properties": {"type": "bus", "region": "cheongna", "name": "공촌마을"}}, {"type": "Feature", "geometry": {"type": "Point", "coordinates": [126.6819167, 37.5483167]}, "properties": {"type": "bus", "region": "cheongna", "name": "연희동광명아파트(사계절썰매장)"}}, {"type": "Feature", "geometry": {"type": "Point", "coordinates": [126.6688167, 37.515]}, "properties": {"type": "bus", "region": "cheongna", "name": "인천연합의원"}}, {"type": "Feature", "geometry": {"type": "Point", "coordinates": [126.6804833, 37.5176]}, "properties": {"type": "bus", "region": "cheongna", "name": "그린빌라"}}, {"type": "Feature", "geometry": {"type": "Point", "coordinates": [126.6600167, 37.5179]}, "properties": {"type": "bus", "region": "cheongna", "name": "청소년수련관"}}, {"type": "Feature", "geometry": {"type": "Point", "coordinates": [126.6599, 37.5180833]}, "properties": {"type": "bus", "region": "cheongna", "name": "청소년수련관"}}, {"type": "Feature", "geometry": {"type": "Point", "coordinates": [126.6565, 37.5585167]}, "properties": {"type": "bus", "region": "cheongna", "name": "녹청자박물관"}}, {"type": "Feature", "geometry": {"type": "Point", "coordinates": [126.6564, 37.55865]}, "properties": {"type": "bus", "region": "cheongna", "name": "녹청자박물관"}}, {"type": "Feature", "geometry": {"type": "Point", "coordinates": [126.6726833, 37.5567833]}, "properties": {"type": "bus", "region": "cheongna", "name": "빈정공원"}}, {"type": "Feature", "geometry": {"type": "Point", "coordinates": [126.6549167, 37.5542]}, "properties": {"type": "bus", "region": "cheongna", "name": "경서지구입구"}}, {"type": "Feature", "geometry": {"type": "Point", "coordinates": [126.6551667, 37.5541833]}, "properties": {"type": "bus", "region": "cheongna", "name": "경서지구입구"}}, {"type": "Feature", "geometry": {"type": "Point", "coordinates": [126.6689, 37.55215]}, "properties": {"type": "bus", "region": "cheongna", "name": "우성아파트"}}, {"type": "Feature", "geometry": {"type": "Point", "coordinates": [126.6693, 37.5525167]}, "properties": {"type": "bus", "region": "cheongna", "name": "우성아파트"}}, {"type": "Feature", "geometry": {"type": "Point", "coordinates": [126.6692333, 37.5219]}, "properties": {"type": "bus", "region": "cheongna", "name": "루원이편한세상하늘채112동"}}, {"type": "Feature", "geometry": {"type": "Point", "coordinates": [126.6689667, 37.5213]}, "properties": {"type": "bus", "region": "cheongna", "name": "가현중학교"}}, {"type": "Feature", "geometry": {"type": "Point", "coordinates": [126.6581667, 37.5297333]}, "properties": {"type": "bus", "region": "cheongna", "name": "청라자이"}}, {"type": "Feature", "geometry": {"type": "Point", "coordinates": [126.6585333, 37.5301]}, "properties": {"type": "bus", "region": "cheongna", "name": "호반베르디움3차아파트"}}, {"type": "Feature", "geometry": {"type": "Point", "coordinates": [126.6765, 37.5340167]}, "properties": {"type": "bus", "region": "cheongna", "name": "청양골"}}, {"type": "Feature", "geometry": {"type": "Point", "coordinates": [126.6783833, 37.5658167]}, "properties": {"type": "bus", "region": "cheongna", "name": "서구국민체육센터"}}, {"type": "Feature", "geometry": {"type": "Point", "coordinates": [126.6599833, 37.5369667]}, "properties": {"type": "bus", "region": "cheongna", "name": "청라고등학교"}}, {"type": "Feature", "geometry": {"type": "Point", "coordinates": [126.6595833, 37.5368333]}, "properties": {"type": "bus", "region": "cheongna", "name": "청라고등학교"}}, {"type": "Feature", "geometry": {"type": "Point", "coordinates": [126.6549833, 37.5301]}, "properties": {"type": "bus", "region": "cheongna", "name": "서해그랑블"}}, {"type": "Feature", "geometry": {"type": "Point", "coordinates": [126.6549833, 37.5297833]}, "properties": {"type": "bus", "region": "cheongna", "name": "서해그랑블"}}, {"type": "Feature", "geometry": {"type": "Point", "coordinates": [126.64415, 37.53005]}, "properties": {"type": "bus", "region": "cheongna", "name": "동양엔파트"}}, {"type": "Feature", "geometry": {"type": "Point", "coordinates": [126.6522333, 37.53]}, "properties": {"type": "bus", "region": "cheongna", "name": "엑슬루타워"}}, {"type": "Feature", "geometry": {"type": "Point", "coordinates": [126.6436167, 37.5296833]}, "properties": {"type": "bus", "region": "cheongna", "name": "동양엔파트"}}, {"type": "Feature", "geometry": {"type": "Point", "coordinates": [126.6766, 37.5685667]}, "properties": {"type": "bus", "region": "cheongna", "name": "검암역입구"}}, {"type": "Feature", "geometry": {"type": "Point", "coordinates": [126.6763833, 37.56855]}, "properties": {"type": "bus", "region": "cheongna", "name": "검암역입구"}}, {"type": "Feature", "geometry": {"type": "Point", "coordinates": [126.6393667, 37.5258]}, "properties": {"type": "bus", "region": "cheongna", "name": "청라호수공원(남측)"}}, {"type": "Feature", "geometry": {"type": "Point", "coordinates": [126.6392, 37.5259333]}, "properties": {"type": "bus", "region": "cheongna", "name": "청라호수공원(남측)"}}, {"type": "Feature", "geometry": {"type": "Point", "coordinates": [126.6414, 37.5300167]}, "properties": {"type": "bus", "region": "cheongna", "name": "한일베라체"}}, {"type": "Feature", "geometry": {"type": "Point", "coordinates": [126.6222333, 37.5273833]}, "properties": {"type": "bus", "region": "cheongna", "name": "한양수자인"}}, {"type": "Feature", "geometry": {"type": "Point", "coordinates": [126.65225, 37.5297833]}, "properties": {"type": "bus", "region": "cheongna", "name": "힐데스하임"}}, {"type": "Feature", "geometry": {"type": "Point", "coordinates": [126.6472, 37.5300333]}, "properties": {"type": "bus", "region": "cheongna", "name": "롯데캐슬"}}, {"type": "Feature", "geometry": {"type": "Point", "coordinates": [126.6472, 37.5297333]}, "properties": {"type": "bus", "region": "cheongna", "name": "휴먼시아후문"}}, {"type": "Feature", "geometry": {"type": "Point", "coordinates": [126.622, 37.5272333]}, "properties": {"type": "bus", "region": "cheongna", "name": "한양수자인"}}, {"type": "Feature", "geometry": {"type": "Point", "coordinates": [126.6409833, 37.5272833]}, "properties": {"type": "bus", "region": "cheongna", "name": "청라호반베르디움.포리공원"}}, {"type": "Feature", "geometry": {"type": "Point", "coordinates": [126.6406333, 37.5272167]}, "properties": {"type": "bus", "region": "cheongna", "name": "청라호반베르디움.포리공원"}}, {"type": "Feature", "geometry": {"type": "Point", "coordinates": [126.6596333, 37.5311]}, "properties": {"type": "bus", "region": "cheongna", "name": "청라국제도서관"}}, {"type": "Feature", "geometry": {"type": "Point", "coordinates": [126.66, 37.5311833]}, "properties": {"type": "bus", "region": "cheongna", "name": "청라국제도서관"}}, {"type": "Feature", "geometry": {"type": "Point", "coordinates": [126.6413667, 37.5297667]}, "properties": {"type": "bus", "region": "cheongna", "name": "한일베라체"}}, {"type": "Feature", "geometry": {"type": "Point", "coordinates": [126.6612333, 37.5301167]}, "properties": {"type": "bus", "region": "cheongna", "name": "심곡천봉수교"}}, {"type": "Feature", "geometry": {"type": "Point", "coordinates": [126.6625, 37.5292]}, "properties": {"type": "bus", "region": "cheongna", "name": "가원초등학교"}}, {"type": "Feature", "geometry": {"type": "Point", "coordinates": [126.6490667, 37.5120667]}, "properties": {"type": "bus", "region": "cheongna", "name": "SK주유소"}}, {"type": "Feature", "geometry": {"type": "Point", "coordinates": [126.6837167, 37.5682167]}, "properties": {"type": "bus", "region": "cheongna", "name": "풍림1차아파트"}}, {"type": "Feature", "geometry": {"type": "Point", "coordinates": [126.6835167, 37.5682667]}, "properties": {"type": "bus", "region": "cheongna", "name": "풍림1차아파트"}}, {"type": "Feature", "geometry": {"type": "Point", "coordinates": [126.6251667, 37.5292]}, "properties": {"type": "bus", "region": "cheongna", "name": "청라국제업무단지(골드클래스)"}}, {"type": "Feature", "geometry": {"type": "Point", "coordinates": [126.62335, 37.52495]}, "properties": {"type": "bus", "region": "cheongna", "name": "반도유보라"}}, {"type": "Feature", "geometry": {"type": "Point", "coordinates": [126.6230333, 37.5249833]}, "properties": {"type": "bus", "region": "cheongna", "name": "동양엔파트"}}, {"type": "Feature", "geometry": {"type": "Point", "coordinates": [126.6627667, 37.5341]}, "properties": {"type": "bus", "region": "cheongna", "name": "청라꽃농원"}}, {"type": "Feature", "geometry": {"type": "Point", "coordinates": [126.6455, 37.53005]}, "properties": {"type": "bus", "region": "cheongna", "name": "롯데캐슬"}}, {"type": "Feature", "geometry": {"type": "Point", "coordinates": [126.6489167, 37.5298333]}, "properties": {"type": "bus", "region": "cheongna", "name": "청라중봉대로(중)"}}, {"type": "Feature", "geometry": {"type": "Point", "coordinates": [126.6500833, 37.5299833]}, "properties": {"type": "bus", "region": "cheongna", "name": "청라중봉대로(중)"}}, {"type": "Feature", "geometry": {"type": "Point", "coordinates": [126.6528167, 37.51805]}, "properties": {"type": "bus", "region": "cheongna", "name": "원진운수차고지"}}, {"type": "Feature", "geometry": {"type": "Point", "coordinates": [126.6527167, 37.5182333]}, "properties": {"type": "bus", "region": "cheongna", "name": "원진운수차고지"}}, {"type": "Feature", "geometry": {"type": "Point", "coordinates": [126.6555, 37.5182]}, "properties": {"type": "bus", "region": "cheongna", "name": "동일폐차장"}}, {"type": "Feature", "geometry": {"type": "Point", "coordinates": [126.6556167, 37.5180333]}, "properties": {"type": "bus", "region": "cheongna", "name": "동일폐차장"}}, {"type": "Feature", "geometry": {"type": "Point", "coordinates": [126.6412333, 37.52985]}, "properties": {"type": "bus", "region": "cheongna", "name": "청라중앙호수공원입구(중)"}}, {"type": "Feature", "geometry": {"type": "Point", "coordinates": [126.6223667, 37.5285167]}, "properties": {"type": "bus", "region": "cheongna", "name": "로봇랜드입구"}}, {"type": "Feature", "geometry": {"type": "Point", "coordinates": [126.6223167, 37.5288333]}, "properties": {"type": "bus", "region": "cheongna", "name": "로봇랜드입구"}}, {"type": "Feature", "geometry": {"type": "Point", "coordinates": [126.6399333, 37.5299333]}, "properties": {"type": "bus", "region": "cheongna", "name": "청라중앙호수공원입구(중)"}}, {"type": "Feature", "geometry": {"type": "Point", "coordinates": [126.6560833, 37.5298167]}, "properties": {"type": "bus", "region": "cheongna", "name": "초은고등학교(중)"}}, {"type": "Feature", "geometry": {"type": "Point", "coordinates": [126.65685, 37.5300167]}, "properties": {"type": "bus", "region": "cheongna", "name": "초은고등학교(중)"}}, {"type": "Feature", "geometry": {"type": "Point", "coordinates": [126.6270833, 37.5298167]}, "properties": {"type": "bus", "region": "cheongna", "name": "호수공원음악분수"}}, {"type": "Feature", "geometry": {"type": "Point", "coordinates": [126.6443, 37.5549333]}, "properties": {"type": "bus", "region": "cheongna", "name": "LG마그나"}}, {"type": "Feature", "geometry": {"type": "Point", "coordinates": [126.6258167, 37.5559333]}, "properties": {"type": "bus", "region": "cheongna", "name": "청라국제도시역"}}, {"type": "Feature", "geometry": {"type": "Point", "coordinates": [126.6660333, 37.5310667]}, "properties": {"type": "bus", "region": "cheongna", "name": "루원제일풍경채정문앞"}}, {"type": "Feature", "geometry": {"type": "Point", "coordinates": [126.6658167, 37.5310667]}, "properties": {"type": "bus", "region": "cheongna", "name": "가정LH3단지정문앞"}}, {"type": "Feature", "geometry": {"type": "Point", "coordinates": [126.6744167, 37.5246333]}, "properties": {"type": "bus", "region": "cheongna", "name": "가정(루원시티)역(중)"}}, {"type": "Feature", "geometry": {"type": "Point", "coordinates": [126.6750667, 37.5248333]}, "properties": {"type": "bus", "region": "cheongna", "name": "가정(루원시티)역(중)"}}, {"type": "Feature", "geometry": {"type": "Point", "coordinates": [126.678, 37.52495]}, "properties": {"type": "bus", "region": "cheongna", "name": "뉴서울아파트"}}, {"type": "Feature", "geometry": {"type": "Point", "coordinates": [126.67815, 37.5243333]}, "properties": {"type": "bus", "region": "cheongna", "name": "루원시티2차리더스뷰아파트"}}, {"type": "Feature", "geometry": {"type": "Point", "coordinates": [126.6843333, 37.5246333]}, "properties": {"type": "bus", "region": "cheongna", "name": "대우하나아파트"}}, {"type": "Feature", "geometry": {"type": "Point", "coordinates": [126.6843, 37.52405]}, "properties": {"type": "bus", "region": "cheongna", "name": "대우하나아파트"}}, {"type": "Feature", "geometry": {"type": "Point", "coordinates": [126.6742, 37.5245167]}, "properties": {"type": "bus", "region": "cheongna", "name": "가정(루원시티)역"}}, {"type": "Feature", "geometry": {"type": "Point", "coordinates": [126.6737167, 37.5250667]}, "properties": {"type": "bus", "region": "cheongna", "name": "가정(루원시티)역"}}, {"type": "Feature", "geometry": {"type": "Point", "coordinates": [126.6653167, 37.5332167]}, "properties": {"type": "bus", "region": "cheongna", "name": "루원더퍼스트아파트"}}, {"type": "Feature", "geometry": {"type": "Point", "coordinates": [126.6653167, 37.53305]}, "properties": {"type": "bus", "region": "cheongna", "name": "루원더퍼스트아파트"}}, {"type": "Feature", "geometry": {"type": "Point", "coordinates": [126.6628667, 37.5286667]}, "properties": {"type": "bus", "region": "cheongna", "name": "가원초등학교"}}, {"type": "Feature", "geometry": {"type": "Point", "coordinates": [126.6625333, 37.52745]}, "properties": {"type": "bus", "region": "cheongna", "name": "가정보금자리(중)"}}, {"type": "Feature", "geometry": {"type": "Point", "coordinates": [126.66275, 37.5282333]}, "properties": {"type": "bus", "region": "cheongna", "name": "가정보금자리(중)"}}, {"type": "Feature", "geometry": {"type": "Point", "coordinates": [126.65925, 37.5203667]}, "properties": {"type": "bus", "region": "cheongna", "name": "원창동(기점)"}}, {"type": "Feature", "geometry": {"type": "Point", "coordinates": [126.6680667, 37.5275667]}, "properties": {"type": "bus", "region": "cheongna", "name": "루원호반베르디움"}}, {"type": "Feature", "geometry": {"type": "Point", "coordinates": [126.6673167, 37.5274333]}, "properties": {"type": "bus", "region": "cheongna", "name": "루원시티프라디움"}}, {"type": "Feature", "geometry": {"type": "Point", "coordinates": [126.6599667, 37.5390667]}, "properties": {"type": "bus", "region": "cheongna", "name": "웰카운티17단지"}}, {"type": "Feature", "geometry": {"type": "Point", "coordinates": [126.6595833, 37.5396667]}, "properties": {"type": "bus", "region": "cheongna", "name": "웰카운티17단지"}}, {"type": "Feature", "geometry": {"type": "Point", "coordinates": [126.6486667, 37.5153333]}, "properties": {"type": "bus", "region": "cheongna", "name": "홈씨씨인천점"}}, {"type": "Feature", "geometry": {"type": "Point", "coordinates": [126.64845, 37.51045]}, "properties": {"type": "bus", "region": "cheongna", "name": "모다아울렛"}}, {"type": "Feature", "geometry": {"type": "Point", "coordinates": [126.6345, 37.52385]}, "properties": {"type": "bus", "region": "cheongna", "name": "청라복합문화센터"}}, {"type": "Feature", "geometry": {"type": "Point", "coordinates": [126.6346333, 37.5237]}, "properties": {"type": "bus", "region": "cheongna", "name": "청라복합문화센터"}}, {"type": "Feature", "geometry": {"type": "Point", "coordinates": [126.6404167, 37.52895]}, "properties": {"type": "bus", "region": "cheongna", "name": "중앙호수공원입구(호반베르디움)"}}, {"type": "Feature", "geometry": {"type": "Point", "coordinates": [126.6766167, 37.5688]}, "properties": {"type": "bus", "region": "cheongna", "name": "검암역입구(시천교밑)"}}, {"type": "Feature", "geometry": {"type": "Point", "coordinates": [126.6686333, 37.5572333]}, "properties": {"type": "bus", "region": "cheongna", "name": "아시아드대광로제비앙아파트"}}, {"type": "Feature", "geometry": {"type": "Point", "coordinates": [126.6684833, 37.5571]}, "properties": {"type": "bus", "region": "cheongna", "name": "아시아드대광로제비앙아파트"}}, {"type": "Feature", "geometry": {"type": "Point", "coordinates": [126.6445167, 37.55525]}, "properties": {"type": "bus", "region": "cheongna", "name": "LG마그나"}}, {"type": "Feature", "geometry": {"type": "Point", "coordinates": [126.6690833, 37.5232167]}, "properties": {"type": "bus", "region": "cheongna", "name": "루에블리아파트"}}, {"type": "Feature", "geometry": {"type": "Point", "coordinates": [126.6693167, 37.5233167]}, "properties": {"type": "bus", "region": "cheongna", "name": "루에블리아파트"}}, {"type": "Feature", "geometry": {"type": "Point", "coordinates": [126.6596, 37.53475]}, "properties": {"type": "bus", "region": "cheongna", "name": "청라웰카운티221동"}}, {"type": "Feature", "geometry": {"type": "Point", "coordinates": [126.6599833, 37.5347667]}, "properties": {"type": "bus", "region": "cheongna", "name": "청라국제어린이집"}}, {"type": "Feature", "geometry": {"type": "Point", "coordinates": [126.628, 37.5298167]}, "properties": {"type": "bus", "region": "cheongna", "name": "호수공원음악분수(중)"}}, {"type": "Feature", "geometry": {"type": "Point", "coordinates": [126.6274333, 37.5296167]}, "properties": {"type": "bus", "region": "cheongna", "name": "호수공원음악분수(중)"}}, {"type": "Feature", "geometry": {"type": "Point", "coordinates": [126.6246667, 37.5219]}, "properties": {"type": "bus", "region": "cheongna", "name": "자이더테라스1단지"}}, {"type": "Feature", "geometry": {"type": "Point", "coordinates": [126.6244333, 37.5218333]}, "properties": {"type": "bus", "region": "cheongna", "name": "자이더테라스1단지"}}, {"type": "Feature", "geometry": {"type": "Point", "coordinates": [126.6121167, 37.5206167]},